eventDate,year,stateProvince,locality,longitude,latitude,id
1900-01-01T00:00:00Z,1900,Queensland,Lake Clarendon,152.344091,-27.508681,1
1900-01-01T00:00:00Z,1900,Queensland,Green Swamp East Water Reserve,152.370235,-27.469081,2
1900-01-01T00:00:00Z,1900,Queensland,Lake Apex,152.269799,-27.572632,3
1935-01-01T00:00:00Z,1935,Queensland,Gordonvale,145.784444,-17.098333,4
1935-06-22T00:00:00Z,1935,Queensland,Gordonvale District,145.784436,-17.098465,5
1936-01-01T00:00:00Z,1936,Queensland,"Macknade, 9ml N Ingham",146.251111,-18.581667,6
1936-01-01T00:00:00Z,1936,Queensland,Cairns District,145.66777,-16.898466,7
1936-01-01T00:00:00Z,1936,Queensland,Tully District,145.93444,-17.931795,8
1936-01-01T00:00:00Z,1936,Queensland,"Hawkins Ck, N Ingham",146.084444,-18.615,9
1936-01-01T00:00:00Z,1936,Queensland,Cairns District,145.751111,-16.915,10
1936-01-01T00:00:00Z,1936,Queensland,"Fishery Falls, 24ml S Cairns",145.884444,-17.181667,11
1936-01-01T00:00:00Z,1936,Queensland,Innisfail District,146.034436,-17.531796,12
1936-01-01T00:00:00Z,1936,Queensland,5km S Innisfail,146.017778,-17.565,13
1936-01-01T00:00:00Z,1936,Queensland,N of Cardwell,145.967778,-18.215,14
1936-01-01T00:00:00Z,1936,Queensland,Tully,145.934444,-17.931667,15
1936-01-01T00:00:00Z,1936,Queensland,Gordonvale District,145.784444,-17.098333,16
1937-01-01T00:00:00Z,1937,Queensland,Babinda District,145.934444,-17.298333,17
1937-01-01T00:00:00Z,1937,Queensland,Isis District,152.451055,-25.181746,18
1937-01-01T00:00:00Z,1937,Queensland,Bundaberg,152.351111,-24.865,19
1937-01-01T00:00:00Z,1937,Queensland,Hambledon area,145.717778,-17.015,20
1937-01-01T00:00:00Z,1937,Queensland,Mackay District,149.184417,-21.148433,21
1937-01-01T00:00:00Z,1937,Queensland,Bundaberg District,152.334388,-24.931748,22
1937-01-01T00:00:00Z,1937,Queensland,South Johnstone,146.001111,-17.598333,23
1937-01-01T00:00:00Z,1937,Queensland,Isis,152.251111,-25.215,24
1937-01-01T00:00:00Z,1937,Queensland,Mossman District,145.384444,-16.465,25
1937-01-01T00:00:00Z,1937,Queensland,Babinda District,145.917769,-17.348463,26
1937-01-01T00:00:00Z,1937,Queensland,Ayr District,147.401111,-19.565,27
1937-01-01T00:00:00Z,1937,Queensland,Ayr,147.409444,-19.573333,28
1937-01-01T00:00:00Z,1937,Queensland,Babinda,145.921944,-17.34,29
1937-01-01T00:00:00Z,1937,Queensland,"Flying Fish Pt, 4ml E Innisfail",146.074722,-17.498333,30
1937-01-01T00:00:00Z,1937,Queensland,Ingham District,146.15111,-18.648457,31
1937-01-01T00:00:00Z,1937,Queensland,Bundaberg,152.351111,-24.865,32
1937-01-01T00:00:00Z,1937,Queensland,Bambaroo District,146.20111,-18.865122,33
1937-01-01T00:00:00Z,1937,Queensland,Bundaberg District,152.351111,-24.865,34
1937-01-01T00:00:00Z,1937,Queensland,Mackay District,149.184444,-21.148333,35
1937-01-01T00:00:00Z,1937,Queensland,Giru District,147.1011,-19.515116,36
1937-01-01T00:00:00Z,1937,Queensland,Bambaroo District,146.201111,-18.865,37
1937-01-01T00:00:00Z,1937,Queensland,Gordonvale,145.784444,-17.094167,38
1937-01-01T00:00:00Z,1937,Queensland,10ml S Gordonvale,145.884444,-17.181667,39
1937-01-01T00:00:00Z,1937,Queensland,Mackay,149.167778,-21.148333,40
1937-01-01T00:00:00Z,1937,Queensland,Ayr District,147.401097,-19.581782,41
1937-01-01T00:00:00Z,1937,Queensland,Mossman,145.376111,-16.460833,42
1937-01-01T00:00:00Z,1937,Queensland,Mackay,149.184444,-21.148333,43
1937-01-01T00:00:00Z,1937,Queensland,30ml S Ingham,146.317778,-18.981667,44
1937-01-01T00:00:00Z,1937,Queensland,Little Mulgrave area,145.717778,-17.14,45
1937-01-01T00:00:00Z,1937,Queensland,Mossman District,145.367771,-16.465137,46
1937-01-01T00:00:00Z,1937,Queensland,9ml NE Ingham,146.259444,-18.598333,47
1937-01-01T00:00:00Z,1937,Queensland,"Biboohra, 8km NW Mareeba",145.417778,-16.915,48
1937-01-01T00:00:00Z,1937,Queensland,Giru,147.105278,-19.515,49
1937-01-01T00:00:00Z,1937,Queensland,Barmbaroo,146.192778,-18.856667,50
1937-01-01T00:00:00Z,1937,Queensland,Ingham District,146.167778,-18.648333,51
1937-01-01T00:00:00Z,1937,Queensland,Giru District,147.101111,-19.515,52
1937-01-01T00:00:00Z,1937,Queensland,"Horse Shoe Bend (Swamp), Ingham",146.051111,-18.631667,53
1938-01-01T00:00:00Z,1938,Queensland,Isis [Junction],152.451111,-25.215,54
1938-01-01T00:00:00Z,1938,Queensland,South Johnstone,146.001111,-17.598333,55
1938-01-01T00:00:00Z,1938,Queensland,"Mena Ck, 10ml S Innisfail",145.951111,-17.656667,56
1938-01-01T00:00:00Z,1938,Queensland,Bundaberg,152.351111,-24.865,57
1938-01-01T00:00:00Z,1938,Queensland,Meringa District,145.784436,-17.081798,58
1939-01-01T00:00:00Z,1939,Queensland,"Halifax, 12ml E Ingham",146.284444,-18.581667,59
1939-01-01T00:00:00Z,1939,Queensland,Lowmead,151.751111,-24.531667,60
1939-01-01T00:00:00Z,1939,Queensland,16ml SW Bundaberg,152.217778,-25.031667,61
1939-01-01T00:00:00Z,1939,Queensland,"Upper Stone area, Ingham",145.967778,-18.731667,62
1939-01-01T00:00:00Z,1939,Queensland,Ingham,146.167778,-18.648333,63
1940-01-01T00:00:00Z,1940,Queensland,Mackay East,149.201111,-21.148333,64
1940-01-01T00:00:00Z,1940,Queensland,Babinda,145.934444,-17.348333,65
1940-01-01T00:00:00Z,1940,Queensland,"Dundula, 6ml S Mackay",149.155278,-21.206667,66
1940-01-01T00:00:00Z,1940,Queensland,Near Euramo,145.934444,-17.998333,67
1940-01-01T00:00:00Z,1940,Queensland,Tully,145.934444,-17.931667,68
1940-01-01T00:00:00Z,1940,Queensland,Home Hill town,147.417778,-19.665,69
1940-01-01T00:00:00Z,1940,Queensland,Brandon via Ayr,147.351111,-19.548333,70
1940-01-01T00:00:00Z,1940,Queensland,Bowen,148.251111,-20.015,71
1940-01-01T00:00:00Z,1940,Queensland,0.5ml W Tully PO,145.917778,-17.931667,72
1940-01-01T00:00:00Z,1940,Queensland,"Fanning River, 50ml SW Townsville",146.434444,-19.731667,73
1940-01-01T00:00:00Z,1940,Queensland,"Edgehill, Cairns",145.734444,-16.898333,74
1940-01-01T00:00:00Z,1940,Queensland,"Redlynch, 6ml SW Cairns",145.701111,-16.881667,75
1940-01-01T00:00:00Z,1940,Queensland,"Kolan North, 20ml W Bundaberg",152.184444,-24.848333,76
1940-01-01T00:00:00Z,1940,Queensland,Biggenden,152.051111,-25.515,77
1940-01-01T00:00:00Z,1940,Queensland,"Isis Central Mill, 6ml N Childers",152.284444,-25.198333,78
1940-01-01T00:00:00Z,1940,Queensland,"Herton, 12ml SW Herberton",145.267778,-17.481667,79
1940-01-01T00:00:00Z,1940,Queensland,"Daradgee, 3ml N Innisfail",146.001111,-17.481667,80
1940-01-01T00:00:00Z,1940,Queensland,"Airdmillan, 4ml NE Ayr",147.451111,-19.531667,81
1940-01-01T00:00:00Z,1940,Queensland,Cairns,145.767778,-16.915,82
1940-01-01T00:00:00Z,1940,Queensland,Herbert River,145.367778,-18.231667,83
1940-01-01T00:00:00Z,1940,Queensland,"Electra, 22ml SW Bundaberg",152.167778,-25.006667,84
1941-01-01T00:00:00Z,1941,Queensland,20km SE Townsville,146.926111,-19.381667,85
1941-01-01T00:00:00Z,1941,Queensland,"Priorsford, 20ml SW Bundaberg",152.117778,-25.015,86
1941-01-01T00:00:00Z,1941,Queensland,Tully,145.934444,-17.931667,87
1942-01-01T00:00:00Z,1942,Queensland,"Tolga, 3ml N Atherton",145.484444,-17.223333,88
1942-01-01T00:00:00Z,1942,Queensland,Tully,145.934444,-17.931667,89
1943-01-01T00:00:00Z,1943,Queensland,Maryborough,152.701111,-25.531667,90
1943-01-01T00:00:00Z,1943,Queensland,"Mt Garnet, 30ml W Ravenshoe",145.117778,-17.681667,91
1944-01-01T00:00:00Z,1944,Queensland,"Howard, 20ml N Maryborough",152.567778,-25.315,92
1944-01-01T00:00:00Z,1944,Queensland,3ml SE Proston,151.630278,-26.192778,93
1944-01-01T00:00:00Z,1944,Queensland,"Branyan, 4ml from Bundaberg",152.251111,-24.898333,94
1944-01-01T00:00:00Z,1944,Queensland,"Mundingburra, 5ml W Townsville GPO",146.784444,-19.298333,95
1944-01-01T00:00:00Z,1944,Queensland,Gympie,152.667778,-26.181667,96
1944-01-01T00:00:00Z,1944,Queensland,"Dows Ck, 30ml W Mackay",148.784444,-21.115,97
1944-01-01T00:00:00Z,1944,Queensland,Proserpine,148.584444,-20.398333,98
1944-01-01T00:00:00Z,1944,Queensland,5ml NW Malanda,145.551111,-17.315,99
1944-01-01T00:00:00Z,1944,Queensland,"Sarina, 23ml S Mackay",149.217778,-21.431667,100
1944-01-01T00:00:00Z,1944,Queensland,"Trebonne, 6ml W Ingham",146.084444,-18.631667,101
1944-01-01T00:00:00Z,1944,Queensland,Gordonvale,145.784444,-17.098333,102
1945-01-01T00:00:00Z,1945,Queensland,North Bundaberg,152.342778,-24.856667,103
1945-01-01T00:00:00Z,1945,Queensland,Gordonvale,145.784444,-17.098333,104
1945-01-01T00:00:00Z,1945,Queensland,"Feluga, 6ml N Tully",145.967778,-17.881667,105
1945-01-01T00:00:00Z,1945,Queensland,Gin Gin,151.951111,-24.998333,106
1945-01-01T00:00:00Z,1945,Queensland,Meerawa 8ml S Gordonvale,145.867778,-17.148333,107
1945-01-01T00:00:00Z,1945,Queensland,10ml N Kingaroy,152.817778,-26.431667,108
1945-01-01T00:00:00Z,1945,Queensland,"Pimlico, 0.5ml SW Castle Hill, Townsville",146.792778,-19.265,109
1945-01-01T00:00:00Z,1945,Queensland,Tully,145.934444,-17.931667,110
1945-01-01T00:00:00Z,1945,Queensland,Mareeba,145.434444,-16.998333,111
1945-01-01T00:00:00Z,1945,Queensland,"Gaeta, 35ml N Gin Gin",151.601111,-24.806667,112
1945-01-01T00:00:00Z,1945,Queensland,"Merinda, 6ml W Bowen",148.167778,-20.015,113
1945-01-01T00:00:00Z,1945,Queensland,"Miriwinni, 42ml S Cairns",145.917778,-17.398333,114
1945-01-01T00:00:00Z,1945,Queensland,"Finch Hatton, 38ml W Mackay",148.634444,-21.148333,115
1945-01-01T00:00:00Z,1945,Queensland,Childers,152.284444,-25.231667,116
1945-01-01T00:00:00Z,1945,Queensland,Bundaberg,152.351111,-24.865,117
1945-01-01T00:00:00Z,1945,Queensland,"Dimbulah, 72ml W Cairns",145.117778,-17.148333,118
1946-01-01T00:00:00Z,1946,Queensland,"Yandaran, 22ml N Bundaberg",152.117778,-24.715,119
1946-01-01T00:00:00Z,1946,Queensland,"Malanda, 30ml SW Cairns",145.601111,-17.348333,120
1946-01-01T00:00:00Z,1946,Queensland,"Elliott Heads, 14ml S Bundaberg",152.484444,-24.915,121
1946-01-01T00:00:00Z,1946,Queensland,Mission Beach,146.101111,-17.865,122
1947-01-01T00:00:00Z,1947,Queensland,"Yungaburra, 23ml W Gordonvale",145.584444,-17.265,123
1947-01-01T00:00:00Z,1947,Queensland,Nambour,152.967778,-26.631667,124
1947-01-01T00:00:00Z,1947,Queensland,30ml S Nambour,152.951111,-26.965,125
1947-01-01T00:00:00Z,1947,Queensland,"Seaforth, 25ml N Mackay",148.967778,-20.898333,126
1947-01-01T00:00:00Z,1947,Queensland,30ml N Nambour,152.717778,-26.315,127
1947-01-01T00:00:00Z,1947,Queensland,"Bauple, 23ml S Maryborough",152.617778,-25.815,128
1947-01-01T00:00:00Z,1947,Queensland,"Guthalungra, 28ml NW Bowen",147.834444,-19.931667,129
1948-01-01T00:00:00Z,1948,Queensland,"Bli Bli, 5ml E Nambour",153.034444,-26.615,130
1948-01-01T00:00:00Z,1948,Queensland,"Tuan, 10ml SE Maryborough",152.867778,-25.681667,131
1948-01-01T00:00:00Z,1948,Queensland,"Calcium, S Townsville",146.834444,-19.681667,132
1948-01-01T00:00:00Z,1948,Queensland,"Fairleigh, 8ml W Mackay",149.101111,-21.098333,133
1948-01-01T00:00:00Z,1948,Queensland,"Septimus, 35ml from Mackay",148.767778,-21.231667,134
1948-01-01T00:00:00Z,1948,Queensland,Maryborough West,152.684444,-25.515,135
1948-01-01T00:00:00Z,1948,Queensland,"Mapleton Forestry, 7ml W Nambour SF",152.867778,-26.631667,136
1948-01-01T00:00:00Z,1948,Queensland,26ml SW Gin Gin,151.751111,-25.248333,137
1948-01-01T00:00:00Z,1948,Queensland,"Morningside, Brisbane",153.076111,-27.465,138
1948-01-01T00:00:00Z,1948,Queensland,"Reid River, S Townsville",146.834444,-19.765,139
1948-03-11T00:00:00Z,1948,Queensland,Mossman River Gorge,145.334444,-16.473333,140
1949-01-01T00:00:00Z,1949,Queensland,"Camp Hill, Brisbane",153.076111,-27.49,141
1949-01-01T00:00:00Z,1949,Queensland,"Mill Reserve, Tully",145.934444,-17.931667,142
1949-01-01T00:00:00Z,1949,Queensland,"Syndicate Rd, 8ml SW Tully",145.876111,-17.973333,143
1949-01-01T00:00:00Z,1949,Queensland,Gladstone,151.267778,-23.848333,144
1949-01-01T00:00:00Z,1949,Queensland,"Cedar Pocket, 5ml E Gympie",152.751111,-26.198333,145
1949-01-01T00:00:00Z,1949,Queensland,Miriam Vale,151.567778,-24.331667,146
1950-01-01T00:00:00Z,1950,Queensland,"Collopy, 50km NE Charters Towers",146.701111,-19.931667,147
1950-01-01T00:00:00Z,1950,Queensland,Monto,151.117778,-24.865,148
1950-01-01T00:00:00Z,1950,Queensland,"Mt Surprise, 58ml E Georgetown",144.317778,-18.148333,149
1950-01-01T00:00:00Z,1950,Queensland,5ml E Nanango,152.067778,-26.665,150
1950-01-01T00:00:00Z,1950,Queensland,"Glen Eagle, 50ml S Mt Garnet",145.334444,-18.165,151
1950-01-01T00:00:00Z,1950,Queensland,"Parke, 5ml S Maryborough",152.667778,-25.581667,152
1950-01-01T00:00:00Z,1950,Queensland,"Millaa Millaa, 41ml NW Innisfail",145.617778,-17.515,153
1950-01-01T00:00:00Z,1950,Queensland,Bauple,152.617778,-25.815,154
1950-01-01T00:00:00Z,1950,Queensland,"Payne Rd, The Gap",152.934444,-27.451111,155
1950-01-01T00:00:00Z,1950,Queensland,"Maroochydore, 7ml SE Nambour",153.101111,-26.665,156
1950-01-01T00:00:00Z,1950,Queensland,"Chelona, 10ml S Mackay",149.151111,-21.265,157
1950-01-01T00:00:00Z,1950,Queensland,"Kilclooney, 50ml W Ingham",145.684444,-18.831667,158
1950-01-01T00:00:00Z,1950,Queensland,"Greenslopes, Brisbane",153.038611,-27.5025,159
1950-01-01T00:00:00Z,1950,Queensland,"St Helens, 2.5ml N Maryborough",152.701111,-25.498333,160
1950-01-01T00:00:00Z,1950,Queensland,"Woodford, 15ml N Caboolture",152.784444,-26.948333,161
1950-01-01T00:00:00Z,1950,Queensland,Woombye,152.967778,-26.665,162
1950-01-01T00:00:00Z,1950,Queensland,Buderim,153.051111,-26.681667,163
1950-01-01T00:00:00Z,1950,Queensland,Pomona SF,152.884444,-26.373333,164
1950-01-01T00:00:00Z,1950,Queensland,"Clare, 18ml SW Ayr",147.234444,-19.781667,165
1950-01-01T00:00:00Z,1950,Queensland,"Penwhaupell, 15ml S Gayndah",151.701111,-25.756667,166
1950-01-01T00:00:00Z,1950,Queensland,"Pindi Pindi, 40ml N Mackay",148.734444,-20.865,167
1950-01-01T00:00:00Z,1950,Queensland,Pomona,152.867778,-26.365,168
1950-01-01T00:00:00Z,1950,Queensland,"Urangan, Hervey Bay",152.901111,-25.281667,169
1950-01-01T00:00:00Z,1950,Queensland,"Petford, 90ml W Cairns",144.934444,-17.348333,170
1950-01-01T00:00:00Z,1950,Queensland,"Kalpower, 25ml NE Monto",151.301111,-24.69,171
1950-01-01T00:00:00Z,1950,Queensland,"Triangle Farm, Goomeri",152.067778,-26.181667,172
1950-01-01T00:00:00Z,1950,Queensland,Collinsville,147.851111,-20.548333,173
1950-01-01T00:00:00Z,1950,Queensland,Biggenden,152.051111,-25.515,174
1950-01-01T00:00:00Z,1950,Queensland,Boyne Valley,151.334444,-25.798333,175
1950-01-01T00:00:00Z,1950,Queensland,"Cawarral, 18ml NE Rockhampton",150.667778,-23.248333,176
1950-01-01T00:00:00Z,1950,Queensland,Bororen,151.501111,-24.248333,177
1950-02-01T00:00:00Z,1950,Queensland,NA,151.716,-25.55,178
1950-09-29T00:00:00Z,1950,Queensland,Edge Hill,145.73,-16.9,179
1950-09-29T00:00:00Z,1950,Queensland,Edge Hill,145.73,-16.9,180
1950-09-29T00:00:00Z,1950,Queensland,Edge Hill,145.73,-16.9,181
1951-01-01T00:00:00Z,1951,Queensland,St Marys (SF),152.467778,-25.681667,182
1951-01-01T00:00:00Z,1951,Queensland,"Mt Gravatt, 7ml S Brisbane",153.080278,-27.54,183
1952-01-01T00:00:00Z,1952,Queensland,"Kolonga, N Gin Gin",151.717778,-24.831667,184
1952-01-01T00:00:00Z,1952,Queensland,Woodford,152.784444,-26.948333,185
1952-01-01T00:00:00Z,1952,Queensland,"Almaden, 20ml SE Chillagoe",144.684444,-17.348333,186
1952-01-01T00:00:00Z,1952,Queensland,20ml N Bundaberg,152.126111,-24.748333,187
1952-01-01T00:00:00Z,1952,Queensland,"Dunethin Rock, Nambour",153.017778,-26.581667,188
1952-01-01T00:00:00Z,1952,Queensland,15ml N Cardwell,145.909444,-18.09,189
1952-01-01T00:00:00Z,1952,Queensland,"Munna Ck, 30ml NNW Gympie",152.484444,-25.898333,190
1952-01-01T00:00:00Z,1952,Queensland,"Milray, Pentland",145.701111,-20.681667,191
1953-01-01T00:00:00Z,1953,Queensland,"Richmond Hill, 83ml SW Townsville",146.267778,-20.065,192
1953-01-01T00:00:00Z,1953,Queensland,"Daintree, 70ml N Cairns",145.317778,-16.248333,193
1953-01-01T00:00:00Z,1953,Queensland,"Windera, 18ml NW Murgon",151.826111,-26.056667,194
1953-01-01T00:00:00Z,1953,Queensland,Gympie Reserves,152.667778,-26.181667,195
1953-01-01T00:00:00Z,1953,Queensland,"Kia-ora, 17ml NE Gympie",152.667778,-25.798333,196
1954-01-01T00:00:00Z,1954,Queensland,Chillagoe caves,144.501111,-17.198333,197
1954-01-01T00:00:00Z,1954,Queensland,"Wellington Point, Brisbane",153.238611,-27.498333,198
1954-01-01T00:00:00Z,1954,Queensland,"Benaraby, 14ml S Gladstone",151.317778,-23.998333,199
1954-01-01T00:00:00Z,1954,Queensland,"Booyal central, 16ml NW Childers",152.034444,-25.215,200
1954-01-01T00:00:00Z,1954,Queensland,"Goomeribong, 10ml W Goomeri",152.017778,-26.131667,201
1954-01-01T00:00:00Z,1954,Queensland,Woody Point,153.105278,-27.256667,202
1954-01-01T00:00:00Z,1954,Queensland,"Mount Morgan, 24ml SW Rockhampton",150.384444,-23.648333,203
1954-01-01T00:00:00Z,1954,Queensland,Tansey,152.051111,-26.048333,204
1954-01-01T00:00:00Z,1954,Queensland,Murgon,151.951111,-26.248333,205
1954-01-01T00:00:00Z,1954,Queensland,"Beerwah Forestry, 5ml SE Beerwah",153.034444,-26.881667,206
1954-01-01T00:00:00Z,1954,Queensland,4ml W Mapleton,152.817778,-26.648333,207
1954-01-01T00:00:00Z,1954,Queensland,Fraser Island,153.101111,-25.498333,208
1954-01-01T00:00:00Z,1954,Queensland,"Cooloolabin, 6ml W Yarraman",152.909444,-26.881667,209
1954-01-01T00:00:00Z,1954,Queensland,Jimboomba,153.034444,-27.831667,210
1954-01-01T00:00:00Z,1954,Queensland,Coominglah,150.834444,-24.748333,211
1954-01-01T00:00:00Z,1954,Queensland,Peachester,152.884444,-26.848333,212
1954-01-01T00:00:00Z,1954,Queensland,"Dayboro, 27ml NW Brisbane",152.834444,-27.198333,213
1954-01-01T00:00:00Z,1954,Queensland,Monto,151.117778,-24.881667,214
1955-01-01T00:00:00Z,1955,Queensland,Brisbane area,153.017778,-27.465,215
1955-01-01T00:00:00Z,1955,Queensland,Biloela Research Stn,149.767778,-24.815,216
1955-01-01T00:00:00Z,1955,Queensland,Maroochydore,153.101111,-26.665,217
1955-01-01T00:00:00Z,1955,Queensland,"Tin Can Bay, 34ml NE Gympie",153.001111,-25.915,218
1955-01-01T00:00:00Z,1955,Queensland,"Theebine, 23ml N Gympie",152.551111,-25.948333,219
1955-01-01T00:00:00Z,1955,Queensland,Kilcoy,152.567778,-26.948333,220
1955-01-01T00:00:00Z,1955,Queensland,"Millaroo, 45ml S Ayr",147.284444,-20.065,221
1955-01-01T00:00:00Z,1955,Queensland,20km SE Bell,151.584444,-27.065,222
1955-01-01T00:00:00Z,1955,Queensland,"Lochlea, S Mt Garnet",144.567778,-18.898333,223
1955-01-01T00:00:00Z,1955,Queensland,Kilkivan,152.234444,-26.081667,224
1955-01-03T00:00:00Z,1955,Queensland,NA,151.416,-25.583,225
1956-01-01T00:00:00Z,1956,Queensland,Charters Towers,146.267778,-20.081667,226
1956-01-01T00:00:00Z,1956,Queensland,"Camel Ck, 60ml W Ingham",145.467778,-18.831667,227
1956-01-01T00:00:00Z,1956,Queensland,Cloyna nr Murgon,151.834444,-26.115,228
1956-01-01T00:00:00Z,1956,Queensland,Yeppoon,150.742778,-23.131667,229
1956-01-01T00:00:00Z,1956,Queensland,Widgee,152.451111,-26.198333,230
1956-01-01T00:00:00Z,1956,Queensland,Innisfail District,146.026102,-17.531796,231
1956-01-01T00:00:00Z,1956,Queensland,North Deep Creek,152.684444,-26.081667,232
1956-01-01T00:00:00Z,1956,Queensland,"Gympie South, 1.5ml WSW Gympie",152.642778,-26.198333,233
1956-01-01T00:00:00Z,1956,Queensland,"Byerwen, 44ml S Collinsville",147.934444,-21.081667,234
1956-01-01T00:00:00Z,1956,Queensland,"Commissioners Flats, Woodford",152.817778,-26.865,235
1956-01-01T00:00:00Z,1956,Queensland,2ml W Kilcoy,152.534444,-26.94,236
1956-01-01T00:00:00Z,1956,Queensland,Murgon,151.951111,-26.248333,237
1956-01-01T00:00:00Z,1956,Queensland,"Cameron Downs, ESE Charters Towers",146.501111,-20.215,238
1956-01-01T00:00:00Z,1956,Queensland,"Cedar Vale, 15ml SW Mt Larcom",150.901111,-23.931667,239
1956-01-01T00:00:00Z,1956,Queensland,"Wellers Hill, Brisbane",153.042778,-27.523333,240
1956-01-01T00:00:00Z,1956,Queensland,"Normanby, 30ml W Cooktown",144.867778,-15.381667,241
1957-01-01T00:00:00Z,1957,Queensland,Marlborough,149.884444,-22.815,242
1957-01-01T00:00:00Z,1957,Queensland,Yuleba,149.384444,-26.615,243
1957-01-01T00:00:00Z,1957,Queensland,"Turrawulla, 86ml W Mackay",148.242778,-21.165,244
1957-01-01T00:00:00Z,1957,Queensland,"Tennyson, Brisbane",153.001111,-27.523333,245
1957-01-01T00:00:00Z,1957,Queensland,Woodford,152.784444,-26.948333,246
1957-01-01T00:00:00Z,1957,Queensland,"Bouldercombe, 13ml SW Rockhampton",150.467778,-23.565,247
1957-01-01T00:00:00Z,1957,Queensland,"Scotston, 40ml NW Eidsvold",150.734444,-25.131667,248
1957-01-01T00:00:00Z,1957,Queensland,"Blenheim, 86ml W Mackay",148.217778,-21.073333,249
1957-01-01T00:00:00Z,1957,Queensland,Wynnum,153.171944,-27.435833,250
1957-01-01T00:00:00Z,1957,Queensland,"Cedarton, 10ml N Woodford",152.817778,-26.848333,251
1957-01-01T00:00:00Z,1957,Queensland,"Kallangur, 10ml NW Brisbane",152.984444,-27.248333,252
1957-01-01T00:00:00Z,1957,Queensland,Fantome Island nr Townsville,146.517778,-18.698333,253
1957-01-01T00:00:00Z,1957,Queensland,"Yarwun, 10ml N Gladstone",151.134444,-23.848333,254
1957-12-15T00:00:00Z,1957,Queensland,NA,153.016,-26.533,255
1957-12-15T00:00:00Z,1957,Queensland,NA,153.016,-26.533,256
1957-12-15T00:00:00Z,1957,Queensland,NA,153.016,-26.533,257
1957-12-15T00:00:00Z,1957,Queensland,NA,153.016,-26.533,258
1957-12-15T00:00:00Z,1957,Queensland,NA,153.016,-26.533,259
1957-12-15T00:00:00Z,1957,Queensland,NA,153.016,-26.533,260
1957-12-15T00:00:00Z,1957,Queensland,NA,153.016,-26.533,261
1957-12-15T00:00:00Z,1957,Queensland,NA,153.016,-26.533,262
1957-12-15T00:00:00Z,1957,Queensland,NA,153.016,-26.533,263
1957-12-15T00:00:00Z,1957,Queensland,NA,153.016,-26.533,264
1957-12-15T00:00:00Z,1957,Queensland,NA,153.016,-26.533,265
1957-12-15T00:00:00Z,1957,Queensland,NA,153.016,-26.533,266
1958-01-01T00:00:00Z,1958,Queensland,"Grandchester, 18ml W Ipswich",152.467778,-27.665,267
1958-01-01T00:00:00Z,1958,Queensland,Gympie West State School,152.667778,-26.181667,268
1958-01-01T00:00:00Z,1958,Queensland,"Coongan, 5ml NE Tansey",152.101111,-26.015,269
1958-01-01T00:00:00Z,1958,Queensland,12.5ml NNW Proston,151.526111,-26.04,270
1958-01-01T00:00:00Z,1958,Queensland,Ingham,146.167778,-18.648333,271
1958-01-01T00:00:00Z,1958,Queensland,Kuraby,153.092778,-27.606667,272
1958-01-01T00:00:00Z,1958,Queensland,"Kemmis Ck, 26ml W Nebo",148.384444,-21.598333,273
1958-01-01T00:00:00Z,1958,Queensland,"Jambin, 20ml N Biloela",150.367778,-24.198333,274
1958-01-01T00:00:00Z,1958,Queensland,Laura,144.451111,-15.565,275
1958-01-01T00:00:00Z,1958,Queensland,Rockhampton region,150.534444,-23.365,276
1958-01-01T00:00:00Z,1958,Queensland,Mulgildie,151.134444,-24.965,277
1959-01-01T00:00:00Z,1959,Queensland,"Mt Charlton, 40ml N Mackay",148.734444,-21.031667,278
1959-01-01T00:00:00Z,1959,Queensland,"Ubobo, Boyne Valley",151.317778,-24.398333,279
1959-01-01T00:00:00Z,1959,Queensland,"Gregory Falls, Fisher Ck",145.867778,-17.581667,280
1959-01-01T00:00:00Z,1959,Queensland,"Mooloolah, 11ml S Nambour",152.967778,-26.765,281
1959-01-01T00:00:00Z,1959,Queensland,"Hillview, 9ml NE Moonford",151.067778,-24.665,282
1959-01-01T00:00:00Z,1959,Queensland,Lakes Creek,150.567778,-23.381667,283
1959-01-01T00:00:00Z,1959,Queensland,Wynnum West,153.151111,-27.456667,284
1959-01-01T00:00:00Z,1959,Queensland,Mundubbera,151.301111,-25.581667,285
1959-01-01T00:00:00Z,1959,Queensland,"Colenso, 33ml W Calliope",150.767778,-24.048333,286
1959-01-01T00:00:00Z,1959,Queensland,Caloundra,153.134444,-26.798333,287
1959-01-01T00:00:00Z,1959,Queensland,"Petrie, 17ml N Brisbane",152.967778,-27.281667,288
1959-01-01T00:00:00Z,1959,Queensland,"Sunnybank, Brisbane",153.067778,-27.5775,289
1959-01-01T00:00:00Z,1959,Queensland,"Milray, 25ml S Pentland",145.701111,-20.681667,290
1959-01-01T00:00:00Z,1959,Queensland,Lindum,153.142778,-27.448333,291
1959-01-01T00:00:00Z,1959,Queensland,9ml W Goomeri,151.951111,-26.181667,292
1959-01-01T00:00:00Z,1959,Queensland,Tuan,152.867778,-25.681667,293
1959-01-01T00:00:00Z,1959,Queensland,"Nettle Ck, 15ml W Ravenshoe",145.234444,-17.665,294
1959-01-01T00:00:00Z,1959,Queensland,Maleny,152.851111,-26.765,295
1959-01-01T00:00:00Z,1959,Queensland,"Koongal, Nth Rockhampton",150.551111,-23.373333,296
1959-01-01T00:00:00Z,1959,Queensland,"Rangemore, 30ml S Home Hill",147.451111,-19.981667,297
1959-01-01T00:00:00Z,1959,Queensland,"Macgregor, Brisbane",153.076111,-27.565,298
1959-01-01T00:00:00Z,1959,Queensland,Scarborough,153.109444,-27.206667,299
1959-01-01T00:00:00Z,1959,Queensland,"Mahoon, 34ml N Monto",151.034444,-24.531667,300
1959-01-01T00:00:00Z,1959,Queensland,3ml W of Bingil Bay,146.067778,-17.815,301
1959-01-01T00:00:00Z,1959,Queensland,Nanango,152.001111,-26.665,302
1959-01-01T00:00:00Z,1959,Queensland,"Kapchorwa, Goomeri",152.067778,-26.181667,303
1959-01-01T00:00:00Z,1959,Queensland,"Brooyar SF, 14ml W Gympie",152.517778,-26.123333,304
1959-01-01T00:00:00Z,1959,Queensland,"Seven Hills, Brisbane",153.076111,-27.481667,305
1959-01-01T00:00:00Z,1959,Queensland,0.5ml S Kilcoy,152.567778,-26.956667,306
1960-01-01T00:00:00Z,1960,Queensland,"Palmerston Hwy, 16ml W Innisfail",145.851111,-17.598333,307
1960-01-01T00:00:00Z,1960,Queensland,Charters Towers,146.267778,-20.081667,308
1960-01-01T00:00:00Z,1960,Queensland,"Kandanga, 16ml S Gympie",152.684444,-26.381667,309
1960-01-01T00:00:00Z,1960,Queensland,"Gilldale, S Mt Garnet",144.884444,-18.598333,310
1960-01-01T00:00:00Z,1960,Queensland,40ml W Goomeri,151.484444,-26.181667,311
1960-01-01T00:00:00Z,1960,Queensland,"Springvale, Townsville",146.551111,-19.348333,312
1960-01-01T00:00:00Z,1960,Queensland,"Toolara, 14ml W Tin Can Bay",152.851111,-25.981667,313
1960-01-01T00:00:00Z,1960,Queensland,"Hawkins Ck, Ingham",146.101111,-18.615,314
1960-01-01T00:00:00Z,1960,Queensland,Kilcoy,152.567778,-26.948333,315
1960-01-01T00:00:00Z,1960,Queensland,South Johnstone nr Innisfail,146.001111,-17.598333,316
1960-01-01T00:00:00Z,1960,Queensland,1ml S Laura on Laura River,144.459444,-15.581667,317
1960-01-01T00:00:00Z,1960,Queensland,"Sandy Ck, 7ml E Kilcoy",152.609444,-26.931667,318
1960-01-01T00:00:00Z,1960,Queensland,Cooroy,152.917778,-26.415,319
1960-01-01T00:00:00Z,1960,Queensland,"Rochedale, 4ml E Mt Gravatt",153.126111,-27.569167,320
1960-01-01T00:00:00Z,1960,Queensland,"New Moon, 50ml W Townsville",145.767778,-19.198333,321
1960-01-01T00:00:00Z,1960,Queensland,Cloncurry,140.501111,-20.698333,322
1960-01-01T00:00:00Z,1960,Queensland,Innisfail,146.017778,-17.531667,323
1960-01-01T00:00:00Z,1960,Queensland,Yeppoon,150.742778,-23.131667,324
1960-01-01T00:00:00Z,1960,Queensland,Stirling Crossing,152.630278,-26.494167,325
1960-01-01T00:00:00Z,1960,Queensland,"Bancroft, 14ml NE Monto",151.234444,-24.781667,326
1960-01-01T00:00:00Z,1960,Queensland,Proston,151.601111,-26.165,327
1960-01-01T00:00:00Z,1960,Queensland,Atherton,145.484444,-17.265,328
1960-01-01T00:00:00Z,1960,Queensland,"Banyo, 7ml N Brisbane",153.076111,-27.3775,329
1960-01-01T00:00:00Z,1960,Queensland,Kenmore nr golf course,153.001111,-27.519167,330
1960-01-01T00:00:00Z,1960,Queensland,"Cloyna, 14ml N Murgon",151.834444,-26.115,331
1960-01-01T00:00:00Z,1960,Queensland,"Beerburrum, 30ml N Brisbane",152.959444,-26.956667,332
1960-01-01T00:00:00Z,1960,Queensland,"Winya, 3ml E Kilcoy",152.601111,-26.931667,333
1960-01-01T00:00:00Z,1960,Queensland,Pullenvale,152.884444,-27.523333,334
1960-01-01T00:00:00Z,1960,Queensland,"Boyne Island, Gladstone",151.351111,-23.931667,335
1960-01-01T00:00:00Z,1960,Queensland,"Jalna, 10ml W Bajool",150.484444,-23.64,336
1960-01-01T00:00:00Z,1960,Queensland,2ml N Tinaroo Falls Dam,145.567778,-17.148333,337
1960-01-01T00:00:00Z,1960,Queensland,"Amamoor, 12ml S Gympie",152.684444,-26.348333,338
1960-01-01T00:00:00Z,1960,Queensland,12ml S of Gympie,152.705278,-26.34,339
1960-01-01T00:00:00Z,1960,Queensland,Glasshouse Mountains,152.951111,-26.898333,340
1960-01-01T00:00:00Z,1960,Queensland,"Pimpama, 10ml S Beenleigh",153.292778,-27.806667,341
1960-01-01T00:00:00Z,1960,Queensland,"Gallangowan, 30ml SE Murgon",152.334444,-26.431667,342
1960-01-01T00:00:00Z,1960,Queensland,Durong,151.251111,-26.331667,343
1960-01-01T00:00:00Z,1960,Queensland,"Goodna, 10ml E Ipswich",152.892778,-27.606667,344
1960-05-31T00:00:00Z,1960,Queensland,NA,152.116,-25.216,345
1960-06-05T00:00:00Z,1960,Queensland,NA,146,-17.6,346
1960-06-05T00:00:00Z,1960,Queensland,NA,146,-17.6,347
1960-06-05T00:00:00Z,1960,Queensland,NA,146,-17.6,348
1960-06-05T00:00:00Z,1960,Queensland,NA,146,-17.6,349
1960-06-05T00:00:00Z,1960,Queensland,NA,146,-17.6,350
1960-06-05T00:00:00Z,1960,Queensland,NA,146,-17.6,351
1960-06-05T00:00:00Z,1960,Queensland,NA,146,-17.6,352
1960-06-09T00:00:00Z,1960,Queensland,NA,144.45,-15.583,353
1961-01-01T00:00:00Z,1961,Queensland,Springwood,153.138611,-27.619167,354
1961-01-01T00:00:00Z,1961,Queensland,Lappa Junction,144.884444,-17.365,355
1961-01-01T00:00:00Z,1961,Queensland,"Wyuna, 9ml Kilcoy",152.501111,-26.848333,356
1961-01-01T00:00:00Z,1961,Queensland,6.5ml S Bundaberg,152.384444,-24.948333,357
1961-01-01T00:00:00Z,1961,Queensland,Blackall Range,152.867778,-26.565,358
1961-01-01T00:00:00Z,1961,Queensland,"Rockybar, 40ml W Eidsvold",150.467778,-25.448333,359
1961-01-01T00:00:00Z,1961,Queensland,Gilbert River delta,141.251111,-16.615,360
1962-01-01T00:00:00Z,1962,Queensland,"The Boulders, NE Babinda",145.863611,-17.331667,361
1962-01-01T00:00:00Z,1962,Queensland,"Oak Valley, 130ml N Hughenden",144.317778,-19.465,362
1962-01-01T00:00:00Z,1962,Queensland,Wowan,150.201111,-23.915,363
1962-01-01T00:00:00Z,1962,Queensland,"Mt Gravatt, Brisbane",153.080278,-27.54,364
1962-01-01T00:00:00Z,1962,Queensland,"Tinaroo Lake, NE Kairi",145.567778,-17.215,365
1962-01-01T00:00:00Z,1962,Queensland,7ml NE Ravenshoe,145.517778,-17.556667,366
1962-01-01T00:00:00Z,1962,Queensland,"Newmarket, Brisbane",153.017778,-27.431667,367
1962-01-01T00:00:00Z,1962,Queensland,"Abbeywood, Proston",151.634444,-26.115,368
1962-01-01T00:00:00Z,1962,Queensland,"Arana Hills, Brisbane",152.951111,-27.398333,369
1962-01-01T00:00:00Z,1962,Queensland,"Parkhurst, Rockhampton",150.517778,-23.298333,370
1962-01-01T00:00:00Z,1962,Queensland,13ml NW Monto,150.967778,-24.798333,371
1962-01-01T00:00:00Z,1962,Queensland,Goovigen,150.284444,-24.148333,372
1962-01-01T00:00:00Z,1962,Queensland,"Federal, 5ml W Pomona",152.801111,-26.381667,373
1962-01-01T00:00:00Z,1962,Queensland,"Mt Kilcoy, 6ml N Kilcoy",152.567778,-26.881667,374
1962-01-01T00:00:00Z,1962,Queensland,13ml W Georgetown,143.359444,-18.298333,375
1962-01-01T00:00:00Z,1962,Queensland,Coomera,153.317778,-27.865,376
1962-01-01T00:00:00Z,1962,Queensland,Maryborough,152.701111,-25.531667,377
1962-01-01T00:00:00Z,1962,Queensland,Bowen,148.251111,-20.015,378
1962-01-01T00:00:00Z,1962,Queensland,"Nerimbera, 7ml E Rockhampton",150.580278,-23.406667,379
1962-01-01T00:00:00Z,1962,Queensland,King Junction via Chillagoe,143.517778,-15.881667,380
1962-12-21T00:00:00Z,1962,New South Wales,Warrumbungle NP,149.083333,-31.216667,385
1963-01-01T00:00:00Z,1963,Queensland,"Darling Point, Brisbane",153.184444,-27.448333,386
1963-01-01T00:00:00Z,1963,Queensland,Mt Surprise,144.317778,-18.148333,387
1963-01-01T00:00:00Z,1963,Queensland,"Mt Gravatt, Brisbane",153.080278,-27.54,388
1963-01-01T00:00:00Z,1963,Queensland,Mt Nebo,152.784444,-27.398333,389
1963-01-01T00:00:00Z,1963,Queensland,"Stanwell, 15ml SW Rockhampton",150.326111,-23.481667,390
1963-01-01T00:00:00Z,1963,Queensland,Boondall,153.059444,-27.348333,391
1963-01-01T00:00:00Z,1963,Queensland,"Mondure, 10ml W Murgon",151.767778,-26.181667,392
1963-01-01T00:00:00Z,1963,Queensland,Pentland,145.401111,-20.531667,393
1963-01-01T00:00:00Z,1963,Queensland,"Kelvin, 50ml S Mackay",149.301111,-21.648333,394
1963-01-01T00:00:00Z,1963,Queensland,"Moora Plains, Westwood",150.017778,-23.498333,395
1963-01-01T00:00:00Z,1963,Queensland,15ml N Monto,151.134444,-24.681667,396
1963-01-01T00:00:00Z,1963,Queensland,2ml N Proston,151.567778,-26.148333,397
1963-01-01T00:00:00Z,1963,Queensland,10ml NE Monto,151.184444,-24.765,398
1963-01-01T00:00:00Z,1963,Queensland,Cleveland,153.284444,-27.5275,399
1963-01-01T00:00:00Z,1963,Queensland,"West End, Brisbane",153.005278,-27.485833,400
1963-01-01T00:00:00Z,1963,Queensland,Corinda,152.980278,-27.54,401
1963-01-01T00:00:00Z,1963,Queensland,"Ferny Grove, Brisbane",152.926111,-27.398333,402
1963-01-01T00:00:00Z,1963,Queensland,"Kullogum, 9ml S Childers",152.301111,-25.323333,403
1963-01-01T00:00:00Z,1963,Queensland,"Yarraden, 30ml S Coen",143.301111,-14.315,404
1963-01-01T00:00:00Z,1963,Queensland,NA,151.266,-23.85,405
1963-01-01T00:00:00Z,1963,Queensland,NA,151.266,-23.85,406
1963-01-01T00:00:00Z,1963,Queensland,NA,151.266,-23.85,407
1964-01-01T00:00:00Z,1964,Queensland,"Lancefield, 40ml S Rockhampton",150.534444,-24.015,408
1964-01-01T00:00:00Z,1964,Queensland,Carbrook,153.267778,-27.673333,409
1964-01-01T00:00:00Z,1964,Queensland,North Rockhampton,150.526111,-23.373333,410
1964-01-01T00:00:00Z,1964,Queensland,Palm Island nr Townsville,146.584444,-18.723333,411
1964-01-01T00:00:00Z,1964,Queensland,"Minnamoolka, 45ml S Mt Garnet",145.117778,-18.181667,412
1964-01-01T00:00:00Z,1964,Queensland,"Woodlands, Gogango",149.734444,-24.065,413
1964-01-01T00:00:00Z,1964,Queensland,Moonford,151.034444,-24.765,414
1964-01-01T00:00:00Z,1964,Queensland,"Wilston, Brisbane",153.021944,-27.435833,415
1964-01-01T00:00:00Z,1964,Queensland,"Hamilton Park, 60ml SW Mackay",148.784444,-21.848333,416
1964-01-01T00:00:00Z,1964,Queensland,Durong South,151.251111,-26.398333,417
1964-01-01T00:00:00Z,1964,Queensland,19ml W Proston,151.367778,-26.265,418
1964-01-01T00:00:00Z,1964,Queensland,12ml NNE Westwood,150.284444,-23.498333,419
1964-01-01T00:00:00Z,1964,Queensland,Montville,152.901111,-26.698333,420
1964-01-01T00:00:00Z,1964,Queensland,Wowan,150.201111,-23.915,421
1964-01-01T00:00:00Z,1964,Queensland,Petrie,152.967778,-27.281667,422
1964-01-01T00:00:00Z,1964,Queensland,Corinda,152.980278,-27.54,423
1964-01-01T00:00:00Z,1964,Queensland,Imbil,152.684444,-26.465,424
1964-01-01T00:00:00Z,1964,Queensland,"Separation, junction Dawson/Mackenzie Rivers",149.784444,-23.581667,425
1964-01-01T00:00:00Z,1964,Queensland,Eidsvold,151.117778,-25.365,426
1964-01-01T00:00:00Z,1964,Queensland,Murgon,151.951111,-26.248333,427
1964-01-01T00:00:00Z,1964,Queensland,"Bletchin Park, 33ml S Charters Towers",146.267778,-20.481667,428
1964-01-01T00:00:00Z,1964,Queensland,Mt Kilcoy,152.567778,-26.881667,429
1964-01-01T00:00:00Z,1964,Queensland,"Pallara, Brisbane",153.005278,-27.619167,430
1964-01-01T00:00:00Z,1964,Queensland,Bajool,150.651111,-23.648333,431
1964-01-01T00:00:00Z,1964,Queensland,"Bunya, 14ml NW Brisbane",152.934444,-27.373333,432
1964-01-01T00:00:00Z,1964,Queensland,Caboolture,152.951111,-27.081667,433
1964-01-01T00:00:00Z,1964,Queensland,9ml N monto,151.167778,-24.756667,434
1964-01-01T00:00:00Z,1964,Queensland,13ml W Proston,151.451111,-26.24,435
1964-01-01T00:00:00Z,1964,Queensland,"Dalma Scrub, 12ml from Stanwell",150.251111,-23.348333,436
1964-01-01T00:00:00Z,1964,Queensland,"Kallanda, 60ml SW Ingham",145.767778,-18.965,437
1964-01-01T00:00:00Z,1964,Queensland,"Buabah [Barambah], 12ml SW Goomeri",152.084444,-26.315,438
1964-01-01T00:00:00Z,1964,Queensland,Neurum,152.701111,-26.965,439
1964-01-01T00:00:00Z,1964,Queensland,Mitchelton,152.967778,-27.415,440
1964-01-01T00:00:00Z,1964,Queensland,2ml E Goomeri,152.092778,-26.198333,441
1964-02-28T00:00:00Z,1964,Queensland,"Museum gardens, Fortitude Valley, Brisbane",152.983333,-27.433333,442
1964-04-01T00:00:00Z,1964,Queensland,Moore Park 12ml NW Bundaberg & 1ml from sea,152.259388,-24.723415,443
1964-04-27T00:00:00Z,1964,Queensland,"Between Barron R and the Crater, Atherton T/land",145.483333,-17.3,444
1964-04-27T00:00:00Z,1964,Queensland,"Between Barron R and the Crater, Atherton T/land",145.483333,-17.3,445
1964-05-24T00:00:00Z,1964,Queensland,NA,148.366,-20.2,446
1964-05-24T00:00:00Z,1964,Queensland,NA,148.366,-20.2,447
1964-05-24T00:00:00Z,1964,Queensland,NA,148.366,-20.2,448
1964-05-24T00:00:00Z,1964,Queensland,NA,148.366,-20.2,449
1964-12-30T00:00:00Z,1964,Queensland,NA,145.45,-16.283,450
1964-12-30T00:00:00Z,1964,Queensland,NA,145.45,-16.283,451
1964-12-30T00:00:00Z,1964,Queensland,NA,145.45,-16.283,452
1964-12-30T00:00:00Z,1964,Queensland,NA,145.45,-16.283,453
1964-12-30T00:00:00Z,1964,Queensland,NA,145.45,-16.283,454
1964-12-30T00:00:00Z,1964,Queensland,NA,145.45,-16.283,455
1964-12-30T00:00:00Z,1964,Queensland,NA,145.45,-16.283,456
1964-12-30T00:00:00Z,1964,Queensland,NA,145.45,-16.283,457
1964-12-30T00:00:00Z,1964,Queensland,NA,145.45,-16.283,458
1964-12-30T00:00:00Z,1964,Queensland,NA,145.45,-16.283,459
1964-12-30T00:00:00Z,1964,Queensland,NA,145.45,-16.283,460
1965-01-01T00:00:00Z,1965,Queensland,"Machine Creek, Mt Larcom",150.934444,-23.831667,461
1965-01-01T00:00:00Z,1965,Queensland,Mundubbera,151.301111,-25.581667,462
1965-01-01T00:00:00Z,1965,Queensland,10ml N Innisfail,145.934444,-17.431667,463
1965-01-01T00:00:00Z,1965,Queensland,Wonga Hills N of Chinchilla,150.826089,-26.090087,464
1965-01-01T00:00:00Z,1965,Queensland,"St Michael's, Old Toorbul Point Road, Caboolture",153.026063,-27.056738,465
1965-01-01T00:00:00Z,1965,Queensland,Holland Park,153.067778,-27.515,466
1965-01-01T00:00:00Z,1965,Queensland,"Bracewell, 7ml SW Mt Larcom",150.901111,-23.898333,467
1965-01-01T00:00:00Z,1965,Queensland,"Albany Creek, 11ml N Brisbane",152.967778,-27.348333,468
1965-01-01T00:00:00Z,1965,Queensland,"Cornelia, 10ml NW Pentland",145.334444,-20.415,469
1965-01-01T00:00:00Z,1965,Queensland,"Mt Stanley, 24ml NNW Linville",152.201111,-26.681667,470
1965-01-01T00:00:00Z,1965,Queensland,Mt Murchison,150.551111,-24.331667,471
1965-01-01T00:00:00Z,1965,Queensland,Gladstone,151.267778,-23.848333,472
1965-01-01T00:00:00Z,1965,Queensland,Woodford,152.784444,-26.948333,473
1965-01-01T00:00:00Z,1965,Queensland,3ml E Goomeri,152.101111,-26.198333,474
1965-01-01T00:00:00Z,1965,Queensland,Jambin,150.367778,-24.198333,475
1965-01-01T00:00:00Z,1965,Queensland,"St Michael's, Old Toorbul Point Road, Caboolture",153.026063,-27.073405,476
1965-01-01T00:00:00Z,1965,Queensland,"Dixie Stn, 100ml S Coen",143.467778,-15.048333,477
1965-01-01T00:00:00Z,1965,Queensland,Mansfield,153.105278,-27.531667,478
1965-01-01T00:00:00Z,1965,Queensland,"Reedy Springs, Pentland",144.684444,-19.965,479
1965-01-02T00:00:00Z,1965,Queensland,NA,145.766,-16.916,480
1965-01-02T00:00:00Z,1965,Queensland,NA,145.766,-16.916,481
1965-01-02T00:00:00Z,1965,Queensland,NA,145.766,-16.916,482
1965-01-02T00:00:00Z,1965,Queensland,NA,145.766,-16.916,483
1965-01-22T00:00:00Z,1965,Queensland,NA,145.766,-16.916,484
1965-01-22T00:00:00Z,1965,Queensland,NA,145.766,-16.916,485
1965-01-22T00:00:00Z,1965,Queensland,NA,145.766,-16.916,486
1965-01-22T00:00:00Z,1965,Queensland,NA,145.766,-16.916,487
1965-01-22T00:00:00Z,1965,Queensland,NA,145.766,-16.916,488
1965-01-22T00:00:00Z,1965,Queensland,NA,145.766,-16.916,489
1965-01-22T00:00:00Z,1965,Queensland,NA,145.766,-16.916,490
1965-01-22T00:00:00Z,1965,Queensland,NA,145.766,-16.916,491
1965-09-08T00:00:00Z,1965,Queensland,"Bunya Rd, Bunyaville, Brisbane",152.933333,-27.35,492
1965-09-08T00:00:00Z,1965,Queensland,"Bunya Rd, Bunyaville, Brisbane",152.933333,-27.35,493
1965-09-08T00:00:00Z,1965,Queensland,"QIMR, Herston Rd, Brisbane",153.05,-27.466667,494
1965-09-08T00:00:00Z,1965,Queensland,"QIMR, Herston Rd, Brisbane",153.05,-27.466667,495
1965-10-05T00:00:00Z,1965,Queensland,"Upper Daradgee Rd, @16km N of Innisfail",145.916667,-17.35,496
1965-10-07T00:00:00Z,1965,Queensland,"Upper Daradgee Rd, 34Km N of Innisfail",145.916667,-17.35,497
1965-10-07T00:00:00Z,1965,Queensland,"Upper Daradgee Rd, 16 km N of Innisfail",145.916667,-17.35,498
1966-01-01T00:00:00Z,1966,Queensland,"Kinka, 8ml SW Wowan",150.101111,-23.981667,499
1966-01-01T00:00:00Z,1966,Queensland,Tinaroo Creek,145.551111,-17.165,500
1966-01-01T00:00:00Z,1966,Queensland,"Koonoori, 48ml W Maryborough",152.151111,-25.781667,501
1966-01-01T00:00:00Z,1966,Queensland,"Prospect Creek, 7ml W Biloela",150.434444,-24.415,502
1966-01-01T00:00:00Z,1966,Queensland,"Marionvale, S Mt Garnet",144.984444,-18.631667,503
1966-01-01T00:00:00Z,1966,Queensland,Dawson River,149.767778,-23.798333,504
1966-01-01T00:00:00Z,1966,Queensland,North Rockhampton,150.526111,-23.373333,505
1966-01-01T00:00:00Z,1966,Queensland,"Delta Downs, 60ml N Normanton",141.317778,-16.998333,506
1966-01-01T00:00:00Z,1966,Queensland,"Ferny Hills, Brisbane",152.930278,-27.385833,507
1966-01-01T00:00:00Z,1966,Queensland,Atherton Forestry,145.509444,-17.323333,508
1966-01-01T00:00:00Z,1966,Queensland,"Riverview, 7ml E Ipswich",152.842778,-27.59,509
1966-01-01T00:00:00Z,1966,Queensland,6ml SW Kilcoy,152.495556,-26.976111,510
1966-01-01T00:00:00Z,1966,Queensland,"Greendale, Wowan",150.151111,-23.781667,511
1966-01-01T00:00:00Z,1966,Queensland,Salisbury,153.030278,-27.5525,512
1966-01-01T00:00:00Z,1966,Queensland,Monto,151.117778,-24.865,513
1966-01-01T00:00:00Z,1966,Queensland,"Moombee [Mourangee], 8.5ml W Gogango",149.817778,-23.69,514
1966-01-01T00:00:00Z,1966,Queensland,Upper Mt Gravatt,153.084444,-27.5525,515
1966-02-16T00:00:00Z,1966,Queensland,"Raymonds, Upper Daradgee Rd, Innisfail",145.9,-17.883333,517
1966-02-18T00:00:00Z,1966,Queensland,"Upper Daradgee Rd, @16km N of Innisfail",145.95,-17.45,518
1966-03-07T00:00:00Z,1966,Queensland,Innisfail General Hospital Grounds,146.016667,-17.533333,519
1966-03-07T00:00:00Z,1966,Queensland,Innisfail General Hospital Grounds,146.016667,-17.533333,520
1966-03-07T00:00:00Z,1966,Queensland,Innisfail General Hospital Grounds,146.016667,-17.533333,521
1967-01-01T00:00:00Z,1967,Queensland,Townsville aerodrome area,146.767771,-19.254008,523
1967-01-01T00:00:00Z,1967,Queensland,"Aspley, Brisbane",153.021944,-27.365,524
1967-01-01T00:00:00Z,1967,Queensland,Wonga Hills N of Chinchilla,150.826089,-26.090087,525
1967-01-01T00:00:00Z,1967,Queensland,10ml SW Mackay,149.084444,-21.281667,526
1967-01-01T00:00:00Z,1967,Queensland,North Woodridge,153.101111,-27.623333,527
1967-01-01T00:00:00Z,1967,Queensland,"Lakeland, 50ml SW Cooktown",144.867778,-15.831667,528
1967-01-01T00:00:00Z,1967,Queensland,Kuraby,153.101111,-27.615,529
1967-01-01T00:00:00Z,1967,Queensland,2ml N Proston,151.567778,-26.148333,530
1967-01-01T00:00:00Z,1967,Queensland,80km S Pentland,145.934444,-20.965,531
1967-01-01T00:00:00Z,1967,Queensland,Mt Gravatt,153.080278,-27.54,532
1967-01-01T00:00:00Z,1967,Queensland,"Coringa, Biggenden",151.984444,-25.381667,533
1967-01-01T00:00:00Z,1967,Queensland,Hendra,153.067778,-27.419167,534
1967-01-01T00:00:00Z,1967,Queensland,Kowanyama,141.751111,-15.481667,535
1967-01-01T00:00:00Z,1967,Queensland,"Ferny Hills, Brisbane",152.930278,-27.385833,536
1967-01-01T00:00:00Z,1967,Queensland,"Gregory Springs, 100ml N Hughenden",144.384444,-19.698333,537
1967-01-01T00:00:00Z,1967,Queensland,"Bindaree, 6ml N Goomeri",152.051111,-26.081667,538
1967-01-01T00:00:00Z,1967,Queensland,"Deeford, 2.5ml SE Wowan",150.217778,-23.915,539
1967-01-01T00:00:00Z,1967,Queensland,"Marama, Wandoan",150.292778,-25.756667,540
1967-01-01T00:00:00Z,1967,Queensland,7ml N Wowan,150.117778,-23.848333,541
1967-01-01T00:00:00Z,1967,Queensland,"Glencoe Stn, Normanton",141.501111,-17.365,542
1967-01-01T00:00:00Z,1967,Queensland,"Shorncliffe, Brisbane",153.084444,-27.3275,543
1967-02-07T00:00:00Z,1967,Queensland,NA,152.7,-26.716,544
1967-05-01T00:00:00Z,1967,Queensland,"Near Eurong Beach, Fraser Is",153.126048,-25.510907,545
1967-12-12T00:00:00Z,1967,Queensland,NA,151.95,-25,549
1968-01-01T00:00:00Z,1968,Queensland,"Cooeeall, 50ml SW Rockhampton",150.084444,-23.831667,550
1968-01-01T00:00:00Z,1968,Queensland,Wowan,150.201111,-23.915,551
1968-01-01T00:00:00Z,1968,Queensland,Carina,153.092778,-27.49,552
1968-01-01T00:00:00Z,1968,Queensland,"Eurong, Fraser Island",153.117778,-25.515,553
1968-01-01T00:00:00Z,1968,Queensland,80ml W Charters Towers,145.301111,-20.648333,554
1968-01-01T00:00:00Z,1968,Queensland,48ml NW Kilcoy,152.259444,-26.381667,555
1968-01-01T00:00:00Z,1968,Queensland,"Wandovale, 140ml NW Charters Towers",144.884444,-19.665,556
1968-01-01T00:00:00Z,1968,Queensland,"Torilla Plains, 87ml N Rockhampton",150.067778,-22.465,557
1968-01-01T00:00:00Z,1968,Queensland,Normanton,141.076111,-17.673333,558
1968-01-01T00:00:00Z,1968,Queensland,Biloela,150.517778,-24.398333,559
1968-01-01T00:00:00Z,1968,Queensland,Acacia Ridge,153.017778,-27.581667,560
1968-01-01T00:00:00Z,1968,Queensland,"Vanrook, 88ml NE Normaton",141.951111,-16.965,561
1968-01-01T00:00:00Z,1968,Queensland,"Beenboona Stn, Charters Towers",146.701111,-21.865,562
1968-01-01T00:00:00Z,1968,Queensland,Byfield,150.651111,-22.848333,563
1968-01-01T00:00:00Z,1968,Queensland,"Bundamba, 1.5ml E Ipswich",152.817778,-27.598333,564
1968-01-01T00:00:00Z,1968,Queensland,Rochedale,153.126111,-27.569167,565
1968-01-01T00:00:00Z,1968,Queensland,"Yarrowmere Stn, Charters Towers",145.867778,-21.448333,566
1968-01-01T00:00:00Z,1968,Queensland,Burketown,139.551111,-17.748333,567
1968-01-01T00:00:00Z,1968,Queensland,Aspley,153.021944,-27.365,568
1968-01-01T00:00:00Z,1968,Queensland,"Hazeldean, 7ml S Kilcoy",152.551111,-27.048333,569
1968-01-01T00:00:00Z,1968,Queensland,Edungalba,149.851111,-23.715,570
1968-01-01T00:00:00Z,1968,Queensland,"Dungarvan, 23ml W Rockhampton",150.117778,-23.415,571
1968-01-01T00:00:00Z,1968,Queensland,"Sheep Stn Ck, 6ml NNW Kilcoy",152.538611,-26.873333,572
1968-01-01T00:00:00Z,1968,Queensland,Yuleba,149.384444,-26.615,573
1968-01-01T00:00:00Z,1968,Queensland,6ml SE Dululu,150.284444,-23.923333,574
1968-01-01T00:00:00Z,1968,Queensland,"Laurinel, 51ml SW Marlborough",149.601111,-23.248333,575
1968-01-01T00:00:00Z,1968,Queensland,Mansfield,153.105278,-27.531667,576
1968-01-01T00:00:00Z,1968,Queensland,Mt Kilcoy,152.567778,-26.881667,577
1968-01-01T00:00:00Z,1968,Queensland,Redbank Plains,152.859444,-27.6525,578
1968-01-01T00:00:00Z,1968,Queensland,"Kendah, 5.7ml W Wowan",150.117778,-23.748333,579
1968-01-15T00:00:00Z,1968,Queensland,"WANDOO STATION, BETRWEEN MARYBOROUGH & SARINA",149,-21.7167,580
1969-01-01T00:00:00Z,1969,Queensland,"Chahpingah, 40ml W Kingaroy",151.384444,-26.465,581
1969-01-01T00:00:00Z,1969,Queensland,"Broadbeach, Gold Coast",153.434444,-28.031667,582
1969-01-01T00:00:00Z,1969,Queensland,"Precipice Ck, Taroom",150.017778,-25.315,583
1969-01-01T00:00:00Z,1969,Queensland,"St Albands, 37ml W Nebo",148.384444,-21.681667,584
1969-01-01T00:00:00Z,1969,Queensland,Toowong,152.992778,-27.481667,585
1969-01-01T00:00:00Z,1969,Queensland,Inala,152.967778,-27.59,586
1969-01-01T00:00:00Z,1969,Queensland,"Strathtay, 60ml NE Hughenden",144.676111,-20.206667,587
1969-01-01T00:00:00Z,1969,Queensland,"Ness Park, Rockhampton",150.684444,-23.248333,588
1969-01-01T00:00:00Z,1969,Queensland,"Lindale, 25ml SE Hivesville",151.834444,-26.481667,589
1969-01-01T00:00:00Z,1969,Queensland,"Sandy Ck, 8ml NE Kilcoy",152.626111,-26.848333,590
1969-01-01T00:00:00Z,1969,Queensland,"Somerset Dam, Kilcoy",152.567778,-26.965,591
1969-01-01T00:00:00Z,1969,Queensland,"Slatery Ck, 3ml E junction Dawson/Mackenzie Rivers",149.817778,-23.615,592
1969-01-01T00:00:00Z,1969,Queensland,"Warrawee, 40ml SE Charters Towers",146.634444,-20.298333,593
1969-01-01T00:00:00Z,1969,Queensland,"Magowra Stn, Normanton",140.884444,-17.781667,594
1969-01-01T00:00:00Z,1969,Queensland,"The Cedars, 20ml E Biloela",150.117778,-24.581667,595
1969-01-01T00:00:00Z,1969,Queensland,Mt Crosby,152.817778,-27.523333,596
1969-01-01T00:00:00Z,1969,Queensland,"Bowenia, 23ml N Yeppoon",150.667778,-22.881667,597
1969-01-01T00:00:00Z,1969,Queensland,"Glencoe Stn, 42ml E Normanton",141.501111,-17.365,598
1969-01-01T00:00:00Z,1969,Queensland,"Bamboo Stn, 50ml S Coen",143.317778,-14.581667,599
1969-01-01T00:00:00Z,1969,Queensland,Southport,153.413611,-27.956667,600
1969-01-01T00:00:00Z,1969,Queensland,"Buranda, Brisbane",153.042778,-27.498333,601
1969-01-01T00:00:00Z,1969,Queensland,Duaringa,149.667778,-23.715,602
1969-01-01T00:00:00Z,1969,Queensland,Beerburrum SF,152.967778,-26.965,603
1969-01-01T00:00:00Z,1969,Queensland,"West Hill, 45ml S Sarina",149.367778,-21.798333,604
1969-01-01T00:00:00Z,1969,Queensland,"Banksia Stn, 20ml E Kunwarara",150.101111,-22.648333,605
1969-01-01T00:00:00Z,1969,Queensland,Gladstone,151.267778,-23.848333,606
1969-01-01T00:00:00Z,1969,Queensland,Palm Island,146.584444,-18.723333,607
1969-01-01T00:00:00Z,1969,Queensland,"Big Tableland, S Cooktown",145.284444,-15.715,608
1969-01-01T00:00:00Z,1969,Queensland,"Clarke Ck School, Marlborough",149.251111,-22.631667,609
1969-01-01T00:00:00Z,1969,Queensland,"Mona Vale, 35ml NW Rockhampton",150.151111,-23.048333,610
1969-01-01T00:00:00Z,1969,Queensland,72ml NE Hughenden,144.534444,-20.131667,611
1969-01-01T00:00:00Z,1969,Queensland,Goomeri,152.067778,-26.181667,612
1969-01-01T00:00:00Z,1969,Queensland,Longford Ck betw Bowen & Proserpine,148.367778,-20.206667,613
1969-01-17T00:00:00Z,1969,Queensland,Coalstoun Lakes,151.883333,-25.616667,614
1969-04-05T00:00:00Z,1969,Queensland,"Cooloola, Rainbow Bch",153.091667,-25.908333,615
1969-04-05T00:00:00Z,1969,Queensland,"Cooloola, Rainbow Bch",153.091667,-25.908333,616
1969-04-05T00:00:00Z,1969,Queensland,"Cooloola, Rainbow Bch",153.091667,-25.908333,617
1969-04-05T00:00:00Z,1969,Queensland,"Cooloola, Rainbow Bch",153.091667,-25.908333,618
1969-04-25T00:00:00Z,1969,Queensland,"Cooloola NP, Seary's Ck",153.075,-25.975,619
1969-04-28T00:00:00Z,1969,Queensland,"Cooloola SF, Poverty Pt",153.025,-25.958333,620
1969-04-28T00:00:00Z,1969,Queensland,"Cooloola SF, Poverty Pt",153.0257834,-25.9568753,621
1969-12-13T00:00:00Z,1969,Queensland,Gin Gin,151.95,-25,623
1969-12-13T00:00:00Z,1969,Queensland,Gin Gin,151.95,-25,624
1970-01-01T00:00:00Z,1970,Queensland,"Vanrook, 88ml NE Normanton",141.951111,-16.965,625
1970-01-01T00:00:00Z,1970,Queensland,Southport,153.413611,-27.956667,626
1970-01-01T00:00:00Z,1970,Queensland,"Railway Estate, Townsville",146.821944,-19.281667,627
1970-01-01T00:00:00Z,1970,Queensland,Karumba,140.851111,-17.481667,628
1970-01-01T00:00:00Z,1970,Queensland,"Fairyland, Chinchilla",150.934444,-26.515,629
1970-01-01T00:00:00Z,1970,Queensland,"Richlands, Brisbane",152.951111,-27.59,630
1970-01-01T00:00:00Z,1970,Queensland,30ml W Kingaroy,151.517778,-26.515,631
1970-01-01T00:00:00Z,1970,Queensland,Morinish,150.201111,-23.248333,632
1970-01-01T00:00:00Z,1970,Queensland,"Raceview, Ipswich",152.784444,-27.64,633
1970-01-01T00:00:00Z,1970,Queensland,"Wheatlands, 7.5ml NW Wondai",151.767778,-26.215,634
1970-01-01T00:00:00Z,1970,Queensland,Duaringa,149.667778,-23.715,635
1970-01-01T00:00:00Z,1970,Queensland,"Wavell Heights, Brisbane",153.051111,-27.39,636
1970-01-01T00:00:00Z,1970,Queensland,"Torver Valley, Hughenden",144.134444,-20.681667,637
1970-01-01T00:00:00Z,1970,Queensland,100km W Moura,149.134444,-24.6275,638
1970-01-01T00:00:00Z,1970,Queensland,Normanton,141.076111,-17.673333,639
1970-01-01T00:00:00Z,1970,Queensland,"Victoria Park, Brisbane",153.026066,-27.456737,640
1970-01-01T00:00:00Z,1970,Queensland,"Mount Douglas, Clermont",146.867778,-21.515,641
1970-01-01T00:00:00Z,1970,Queensland,Alexandra-Leichhardt River junction,139.884444,-18.215,642
1970-01-01T00:00:00Z,1970,Queensland,6ml W Kilcoy,152.484444,-26.931667,643
1970-01-01T00:00:00Z,1970,Queensland,"Western Catchment, Cooloola NP",152.959388,-26.073407,644
1970-01-01T00:00:00Z,1970,Queensland,"The Brae, 28ml SSE Theodore",150.234444,-25.498333,645
1970-01-01T00:00:00Z,1970,Queensland,"Killarney, Laura",143.501111,-15.423333,646
1970-01-01T00:00:00Z,1970,Queensland,"Glebe Weir, Taroom",150.001111,-25.481667,647
1970-01-01T00:00:00Z,1970,Queensland,"Banana, 100ml W Gladstone",150.134444,-24.465,648
1970-01-01T00:00:00Z,1970,Queensland,22ml SE Rockhampton,150.634444,-23.648333,649
1970-01-01T00:00:00Z,1970,Queensland,"Rutland Plains, Normanton",141.817778,-15.631667,650
1970-01-01T00:00:00Z,1970,Queensland,"Nudgee Beach, Brisbane",153.101111,-27.344167,651
1970-01-01T00:00:00Z,1970,Queensland,"Lotus Vale Stn, Normanton",141.384444,-17.048333,652
1970-01-01T00:00:00Z,1970,Queensland,"Tivoli Lower, 3ml from Ipswich",152.784444,-27.581667,653
1970-01-01T00:00:00Z,1970,Queensland,"Bygana OS, Clermont",146.551111,-22.198333,654
1970-01-01T00:00:00Z,1970,Queensland,Brassall,152.738611,-27.594167,655
1970-01-01T00:00:00Z,1970,Queensland,"Cape River, nr Charters Towers",145.484444,-20.481667,656
1970-01-01T00:00:00Z,1970,Queensland,Baralaba,149.817778,-24.181667,657
1970-01-01T00:00:00Z,1970,Queensland,"Yarrowmere, 110ml SW Charters Towers",145.867778,-21.448333,658
1970-01-01T00:00:00Z,1970,Queensland,Yorkeys Knob,145.721944,-16.810833,659
1970-01-01T00:00:00Z,1970,Queensland,"R.25, 6.2km W Eidsvold, Burnett R",151.088576,-25.377584,660
1970-01-01T00:00:00Z,1970,Queensland,"The Caves, 14ml N Rockhampton",150.467778,-23.181667,661
1970-01-01T00:00:00Z,1970,Queensland,Ridgelands,150.284444,-23.248333,662
1970-01-01T00:00:00Z,1970,Queensland,"Riverview, 30ml W Kingaroy",151.451111,-26.481667,663
1970-01-01T00:00:00Z,1970,Queensland,Marburg,152.601111,-27.565,664
1970-01-01T00:00:00Z,1970,Queensland,"Kragra, 60ml NE Chinchilla",150.867778,-26.115,665
1970-01-01T00:00:00Z,1970,Queensland,"Nerang, 5ml W Southport",153.334444,-27.998333,666
1970-01-01T00:00:00Z,1970,Queensland,"Dingo, W Rockhampton",149.334444,-23.648333,667
1970-01-01T00:00:00Z,1970,Queensland,"Harlin, 16ml W Kilcoy",152.367778,-26.965,668
1970-01-01T00:00:00Z,1970,Queensland,"Bygana Stn, Clermont",146.551111,-22.198333,669
1970-01-01T00:00:00Z,1970,Queensland,Heron Island,151.914946,-23.441468,670
1970-01-01T00:00:00Z,1970,Queensland,"Barrett's Lagoon, 8km W of Cooktown",145.151111,-15.426111,671
1970-01-01T00:00:00Z,1970,Queensland,Capella,148.017778,-23.081667,672
1970-02-15T00:00:00Z,1970,Queensland,Cooloola Ck and Lagoon,153.058333,-26.025,673
1970-10-01T00:00:00Z,1970,Queensland,12ml NW Cooktown,145.109444,-15.4275,674
1970-11-07T00:00:00Z,1970,Queensland,NA,144.383,-17.1,675
1970-11-07T00:00:00Z,1970,Queensland,NA,144.383,-17.1,676
1971-01-01T00:00:00Z,1971,Queensland,East Ipswich,152.784444,-27.606667,677
1971-01-01T00:00:00Z,1971,Queensland,Childers,152.284444,-25.231667,678
1971-01-01T00:00:00Z,1971,Queensland,Burrandowan,151.334444,-26.415,679
1971-01-01T00:00:00Z,1971,Queensland,"Camden Park, 65ml N Hughenden",144.567778,-20.081667,680
1971-01-01T00:00:00Z,1971,Queensland,Jimna,152.467778,-26.665,681
1971-01-01T00:00:00Z,1971,Queensland,Approx 25ml W Townsville on Hervey Range Rd,146.451111,-19.365,682
1971-01-01T00:00:00Z,1971,Queensland,Benowa 4ml SSW Southport,153.392778,-28.015,683
1971-01-01T00:00:00Z,1971,Queensland,Southport,153.413611,-27.956667,684
1971-01-01T00:00:00Z,1971,Queensland,"Thangool, 25ml S Biloela",150.584444,-24.481667,685
1971-01-01T00:00:00Z,1971,Queensland,"Gregors Ck, 10.5ml WSW Kilcoy",152.451111,-26.965,686
1971-01-01T00:00:00Z,1971,Queensland,Mt Glorious,152.767778,-27.331667,687
1971-01-01T00:00:00Z,1971,Queensland,"Mutapilly, 16ml SW Ipswich",152.651111,-27.773333,688
1971-01-01T00:00:00Z,1971,Queensland,"Trevethan Ck crossing, Cooktown Hwy",145.217778,-15.615,689
1971-01-01T00:00:00Z,1971,Queensland,Woodford,152.784444,-26.948333,690
1971-01-01T00:00:00Z,1971,Queensland,West Chermside,153.009444,-27.381667,691
1971-01-01T00:00:00Z,1971,Queensland,"Bellthorpe, 15ml NW Woodford",152.717778,-26.848333,692
1971-01-01T00:00:00Z,1971,Queensland,"Kowanyama, Rutland Plains",141.817778,-15.631667,693
1971-01-01T00:00:00Z,1971,Queensland,Mt Hope Clermont,148.167778,-24.098333,694
1971-01-01T00:00:00Z,1971,Queensland,Hope Vale Mission nr Cooktown,145.117778,-15.298333,695
1971-01-01T00:00:00Z,1971,Queensland,Marlborough,149.884444,-22.815,696
1971-01-01T00:00:00Z,1971,Queensland,"Brampton Vale, 32ml N Yeppoon",150.617778,-22.765,697
1971-01-01T00:00:00Z,1971,Queensland,Sunnybank,153.067778,-27.5775,698
1971-01-01T00:00:00Z,1971,Queensland,"Blackstone, 3.7km E Ipswich",152.809444,-27.631667,699
1971-01-01T00:00:00Z,1971,Queensland,"Llanarth, 120ml S Charters Towers",146.867778,-21.298333,700
1971-01-01T00:00:00Z,1971,Queensland,Baralaba,149.817778,-24.181667,701
1971-01-01T00:00:00Z,1971,Queensland,"Alligator Ck, 80ml N Rockhampton",150.417778,-22.865,702
1971-01-01T00:00:00Z,1971,Queensland,"Valkyrie, 90ml SW Mackay",148.584444,-21.981667,703
1971-01-01T00:00:00Z,1971,Queensland,"Mt Douglas, 110ml N Clermont",146.867778,-21.515,704
1971-01-01T00:00:00Z,1971,Queensland,Thursday Island,142.217778,-10.581667,705
1971-01-01T00:00:00Z,1971,Queensland,"Tanyanah, 25ml N Jandowae",151.021944,-26.4775,706
1971-01-01T00:00:00Z,1971,Queensland,Prairie,144.601111,-20.865,707
1971-01-01T00:00:00Z,1971,Queensland,"Deagon, Brisbane",153.059444,-27.3275,708
1971-01-01T00:00:00Z,1971,Queensland,"Hawkins Ck, Ingham",146.084444,-18.615,709
1971-01-01T00:00:00Z,1971,Queensland,"Witta, 6ml NW Maleny",152.801111,-26.698333,710
1971-01-01T00:00:00Z,1971,Queensland,Capella,148.017778,-23.081667,711
1971-03-04T00:00:00Z,1971,Queensland,Cape Cleveland,147.016667,-19.183333,712
1971-03-23T00:00:00Z,1971,Queensland,UPPER ORMEAU.,153.226066,-27.823402,713
1971-05-01T00:00:00Z,1971,Queensland,"Dune site, Mackay airport area",149.1914,-21.1817,714
1971-05-01T00:00:00Z,1971,Queensland,"Mown-grass site, Mackay airport area",149.18,-21.1701,715
1971-05-01T00:00:00Z,1971,Queensland,"Terminal site, Mackay airport area",149.1827,-21.1685,716
1971-05-01T00:00:00Z,1971,Queensland,"Drain site, Mackay airport area",149.1881,-21.1697,717
1971-05-01T00:00:00Z,1971,Queensland,"Swamp site, Mackay airport area",149.1889,-21.1828,718
1971-05-01T00:00:00Z,1971,Queensland,"Runway site, Mackay airport area",149.1819,-21.1708,719
1971-05-01T00:00:00Z,1971,Queensland,Mackay,149.1833,-21.15,720
1971-05-01T00:00:00Z,1971,Queensland,Mackay,149.1833,-21.15,721
1971-05-06T00:00:00Z,1971,Queensland,Mackay,149.1917,-21.1667,722
1971-05-06T00:00:00Z,1971,Queensland,Mackay,149.1917,-21.1667,723
1971-05-06T00:00:00Z,1971,Queensland,Mackay,149.1917,-21.1667,724
1971-05-06T00:00:00Z,1971,Queensland,Mackay,149.1917,-21.1667,725
1971-05-06T00:00:00Z,1971,Queensland,Mackay,149.1917,-21.1667,726
1971-05-08T00:00:00Z,1971,Queensland,Mackay,149.1917,-21.1667,727
1971-05-08T00:00:00Z,1971,Queensland,Mackay,149.1917,-21.1667,728
1971-05-08T00:00:00Z,1971,Queensland,Mackay,149.1917,-21.1667,729
1971-05-10T00:00:00Z,1971,Queensland,Mackay,149.1917,-21.1667,730
1971-05-10T00:00:00Z,1971,Queensland,Mackay,149.1917,-21.1667,731
1971-05-10T00:00:00Z,1971,Queensland,Mackay,149.1917,-21.1667,732
1971-05-10T00:00:00Z,1971,Queensland,Mackay,149.1917,-21.1667,733
1971-05-10T00:00:00Z,1971,Queensland,Mackay,149.1917,-21.1667,734
1971-05-10T00:00:00Z,1971,Queensland,Mackay,149.1917,-21.1667,735
1971-05-10T00:00:00Z,1971,Queensland,Mackay,149.1917,-21.1667,736
1971-05-10T00:00:00Z,1971,Queensland,Mackay,149.1917,-21.1667,737
1971-05-10T00:00:00Z,1971,Queensland,Mackay,149.1917,-21.1667,738
1971-05-10T00:00:00Z,1971,Queensland,Mackay,149.1917,-21.1667,739
1971-05-18T00:00:00Z,1971,Queensland,NA,150,-22.866,740
1971-05-18T00:00:00Z,1971,Queensland,NA,150,-22.866,741
1971-05-18T00:00:00Z,1971,Queensland,NA,150,-22.866,742
1971-05-18T00:00:00Z,1971,Queensland,NA,150,-22.866,743
1971-05-18T00:00:00Z,1971,Queensland,NA,150,-22.866,744
1971-05-18T00:00:00Z,1971,Queensland,NA,150,-22.866,745
1971-05-19T00:00:00Z,1971,Queensland,NA,149.883,-22.816,746
1971-05-19T00:00:00Z,1971,Queensland,NA,149.883,-22.816,747
1971-05-19T00:00:00Z,1971,Queensland,NA,149.883,-22.816,748
1971-05-19T00:00:00Z,1971,Queensland,NA,149.883,-22.816,749
1971-05-19T00:00:00Z,1971,Queensland,NA,149.883,-22.816,750
1971-05-19T00:00:00Z,1971,Queensland,NA,149.883,-22.816,751
1971-05-19T00:00:00Z,1971,Queensland,NA,149.883,-22.816,752
1971-05-19T00:00:00Z,1971,Queensland,NA,149.883,-22.816,753
1971-09-01T00:00:00Z,1971,Queensland,Shoalwater Bay Training Area - Wadallah Ck,150.205278,-22.531667,754
1971-10-01T00:00:00Z,1971,Queensland,Dipperu National Park,148.701092,-21.940102,755
1972-01-01T00:00:00Z,1972,Queensland,Noosa NP,153.101111,-26.381667,756
1972-01-01T00:00:00Z,1972,Queensland,5ml S Musgrave,143.526111,-14.84,757
1972-01-01T00:00:00Z,1972,Queensland,"Jimmys Scrub, 18ml SE Goomeri",152.234444,-26.365,758
1972-01-01T00:00:00Z,1972,Queensland,North Tamborine,153.176111,-27.923333,759
1972-01-01T00:00:00Z,1972,Queensland,Mt Chalmers nr Rockhampton,150.642778,-23.29,760
1972-01-01T00:00:00Z,1972,Queensland,"Prenzlau, 10ml from Lowood",152.517778,-27.531667,761
1972-01-01T00:00:00Z,1972,Queensland,4ml SW Kenilworth,152.701111,-26.631667,762
1972-01-01T00:00:00Z,1972,Queensland,"Yednia, 16ml N Kilcoy",152.467778,-26.765,763
1972-01-01T00:00:00Z,1972,Queensland,Homestead,145.651111,-20.365,764
1972-01-01T00:00:00Z,1972,Queensland,"Mooltunya, Stanmore",152.784444,-26.898333,765
1972-01-01T00:00:00Z,1972,Queensland,40ml S Tully,146.101111,-18.39,766
1972-01-01T00:00:00Z,1972,Queensland,Numinbah Valley,153.226111,-28.14,767
1972-01-01T00:00:00Z,1972,Queensland,"Labrador, Southport",153.405278,-27.944167,768
1972-01-01T00:00:00Z,1972,Queensland,4.5ml W Southport,153.351111,-27.981667,769
1972-01-01T00:00:00Z,1972,Queensland,Loganholme,153.184444,-27.694167,770
1972-01-01T00:00:00Z,1972,Queensland,Ogmore,149.667778,-22.615,771
1972-01-01T00:00:00Z,1972,Queensland,St George,148.584444,-28.048333,772
1972-01-01T00:00:00Z,1972,Queensland,W of Dingo,149.267778,-23.631667,773
1972-01-01T00:00:00Z,1972,Queensland,"Yanina, 34km SW Moura",149.634444,-24.831667,774
1972-01-01T00:00:00Z,1972,Queensland,22ml N Jandowae,151.134444,-26.531667,775
1972-01-01T00:00:00Z,1972,Queensland,Blackwater,148.884444,-23.581667,776
1972-01-01T00:00:00Z,1972,Queensland,"Mona Vale, 19ml N Jandowae",151.117778,-26.498333,777
1972-01-01T00:00:00Z,1972,Queensland,Nanango,152.001111,-26.665,778
1972-01-01T00:00:00Z,1972,Queensland,"Palm Beach, Gold Coast",153.467778,-28.115,779
1972-01-01T00:00:00Z,1972,Queensland,Hatton Vale,152.467778,-27.565,780
1972-01-01T00:00:00Z,1972,Queensland,Bauhinia,149.301111,-24.573333,781
1972-01-01T00:00:00Z,1972,Queensland,"Red Hill, 12ml NW Dingo",149.234444,-23.548333,782
1972-01-01T00:00:00Z,1972,Queensland,"Diamond Plains, Clermont",147.584444,-22.065,783
1972-01-01T00:00:00Z,1972,Queensland,"Victoria Park, Herston, Brisbane",153.0219,-27.45257,784
1972-01-01T00:00:00Z,1972,Queensland,"Warrenlea, 30km W Moura",149.817778,-24.681667,785
1972-01-01T00:00:00Z,1972,Queensland,"Bellfield, 125ml N Richmond",143.167778,-19.365,786
1972-01-01T00:00:00Z,1972,Queensland,"Jarall Ck, 40ml W Kingaroy",151.251111,-26.531667,787
1972-01-01T00:00:00Z,1972,Queensland,"Acacia Ridge, Brisbane",153.017778,-27.581667,788
1972-01-01T00:00:00Z,1972,Queensland,"Hillcrest, 20ml from Toogoolawah",152.134444,-27.148333,789
1972-01-01T00:00:00Z,1972,Queensland,Burleigh Heads,153.451111,-28.094167,790
1972-01-01T00:00:00Z,1972,Queensland,25ml NE Jandowae,151.401111,-26.631667,791
1972-01-01T00:00:00Z,1972,Queensland,Hann River,143.876111,-15.198333,792
1972-01-01T00:00:00Z,1972,Queensland,Torrens Creek,145.017778,-20.765,793
1972-01-01T00:00:00Z,1972,Queensland,Booval,152.034444,-25.215,794
1972-01-01T00:00:00Z,1972,Queensland,"Coowonga, 21ml E Rockhampton",150.717778,-23.281667,795
1972-01-01T00:00:00Z,1972,Queensland,"Gleneagle, 7ml N Beaudesert",152.984444,-27.931667,796
1972-05-23T00:00:00Z,1972,Queensland,Woodgate NP/as SF278,152.605219,-25.152579,797
1972-08-21T00:00:00Z,1972,Queensland,NA,145.166,-16.666,799
1972-08-21T00:00:00Z,1972,Queensland,NA,145.166,-16.666,800
1972-09-08T00:00:00Z,1972,Queensland,NA,143.483,-14.783,801
1973-01-01T00:00:00Z,1973,Queensland,Amberley CSIRO,152.701111,-27.631667,802
1973-01-01T00:00:00Z,1973,Queensland,"Redcliffe, Moura",149.584444,-24.331667,803
1973-01-01T00:00:00Z,1973,Queensland,Flaggy Rock betw Sarina & St Lawrence,149.451111,-21.965,804
1973-01-01T00:00:00Z,1973,Queensland,"Bellfield, Richmond",143.167778,-19.365,805
1973-01-01T00:00:00Z,1973,Queensland,Amberley,152.701111,-27.64,806
1973-01-01T00:00:00Z,1973,Queensland,Toogoolawah,152.384444,-27.081667,807
1973-01-01T00:00:00Z,1973,Queensland,12ml NE Bunya Mts,151.684444,-26.781667,808
1973-01-01T00:00:00Z,1973,Queensland,Everton Park,152.988611,-27.406667,809
1973-01-01T00:00:00Z,1973,Queensland,Kheri OS betw Julia Ck & Winton,140.684444,-22.348333,810
1973-01-01T00:00:00Z,1973,Queensland,Kenmore,152.938611,-27.519167,811
1973-01-01T00:00:00Z,1973,Queensland,"Big Valley, Wandoan",150.309444,-25.888611,812
1973-01-01T00:00:00Z,1973,Queensland,Mudgeeraba,153.367778,-28.081667,813
1973-01-01T00:00:00Z,1973,Queensland,Bardon,152.984444,-27.465,814
1973-01-01T00:00:00Z,1973,Queensland,Chelmer,152.976111,-27.515,815
1973-01-01T00:00:00Z,1973,Queensland,"Avalon, 30ml N Jandowae",151.184444,-26.431667,816
1973-01-01T00:00:00Z,1973,Queensland,Dulacca,149.767778,-26.648333,817
1973-01-01T00:00:00Z,1973,Queensland,Tipton,151.267778,-27.381667,818
1973-01-01T00:00:00Z,1973,Queensland,Walloon,152.667778,-27.606667,819
1973-01-01T00:00:00Z,1973,Queensland,Roma,148.784444,-26.581667,820
1973-01-01T00:00:00Z,1973,Queensland,Mt Glorious to top of range,152.755278,-27.323333,821
1973-01-01T00:00:00Z,1973,Queensland,"Greenmeadows East, Mt Gravatt",153.101111,-27.5275,822
1973-01-01T00:00:00Z,1973,Queensland,"Augustus Downs, 70ml SE Burketown",139.867778,-18.548333,823
1973-01-01T00:00:00Z,1973,Queensland,"Memerambi, 8ml N Kingaroy",151.817778,-26.448333,824
1973-01-01T00:00:00Z,1973,Queensland,Beechmont,153.192778,-28.131667,825
1973-01-01T00:00:00Z,1973,Queensland,Brassall,152.738611,-27.594167,826
1973-01-01T00:00:00Z,1973,Queensland,"Patrick Estate, 5ml W Lowood",152.567778,-27.415,827
1973-01-01T00:00:00Z,1973,Queensland,Beaudesert,153.001111,-27.99,828
1973-01-01T00:00:00Z,1973,Queensland,"Woorabinda, 110ml SW Rockhampton",149.467778,-24.131667,829
1973-01-01T00:00:00Z,1973,Queensland,"Elgin Vale, 20ml NE Nanango",152.201111,-26.448333,830
1973-01-01T00:00:00Z,1973,Queensland,Karrabin,152.709444,-27.606667,831
1973-01-01T00:00:00Z,1973,Queensland,14ml S Mt Carbine,145.251111,-16.665,832
1973-01-01T00:00:00Z,1973,Queensland,Conondale farms,152.717778,-26.731667,833
1973-01-01T00:00:00Z,1973,Queensland,Jimna,152.467778,-26.665,834
1973-01-01T00:00:00Z,1973,Queensland,Rosewood,152.601111,-27.648333,835
1973-01-01T00:00:00Z,1973,Queensland,"Torwood, 12ml S Mungallala",147.551111,-26.448333,836
1973-01-01T00:00:00Z,1973,Queensland,"Elgin Downs, 100ml NW Clermont",146.917778,-21.998333,837
1973-01-01T00:00:00Z,1973,Queensland,Small island in North Pine Dam,152.926111,-27.265,838
1973-01-01T00:00:00Z,1973,Queensland,Binna Burra,153.184444,-28.215,839
1973-01-01T00:00:00Z,1973,Queensland,Miles,150.184444,-26.665,840
1973-01-01T00:00:00Z,1973,Queensland,"Inverleigh Stn, 46ml W Normanton",140.567778,-18.006667,841
1973-01-01T00:00:00Z,1973,Queensland,"Averest, 24ml N Jandowae",151.184444,-26.515,842
1973-01-01T00:00:00Z,1973,Queensland,Kingaroy,151.834444,-26.531667,843
1973-01-01T00:00:00Z,1973,Queensland,"Town common, Richmond",143.134444,-20.731667,844
1973-01-01T00:00:00Z,1973,Queensland,Cecil Plains,151.201111,-27.531667,845
1973-02-27T00:00:00Z,1973,Queensland,Mulgrave R,145.784176,-17.1152642,846
1973-02-27T00:00:00Z,1973,Queensland,Mulgrave R,145.784176,-17.1152642,847
1973-05-24T00:00:00Z,1973,Queensland,Woody Is,152.966667,-25.283333,848
1973-10-01T00:00:00Z,1973,New South Wales,Ballina,153.566667,-28.866667,849
1973-10-18T00:00:00Z,1973,Queensland,NA,151.616,-25.616,850
1974-01-01T00:00:00Z,1974,Queensland,Hivesville,151.701111,-26.181667,851
1974-01-01T00:00:00Z,1974,Queensland,Toolara,152.834444,-25.998333,852
1974-01-01T00:00:00Z,1974,Queensland,Rosevale,152.484444,-27.865,853
1974-01-01T00:00:00Z,1974,Queensland,Mundubbera,151.301111,-25.581667,854
1974-01-01T00:00:00Z,1974,Queensland,Hervey Bay,152.867778,-25.315,855
1974-01-01T00:00:00Z,1974,Queensland,Gin Gin,151.951111,-24.998333,856
1974-01-01T00:00:00Z,1974,Queensland,Mimbun,145.584444,-17.481667,857
1974-01-01T00:00:00Z,1974,Queensland,Mt Glorious,152.759444,-27.331667,858
1974-01-01T00:00:00Z,1974,Queensland,"Stanmore, 6ml N Woodford",152.784444,-26.898333,859
1974-01-01T00:00:00Z,1974,Queensland,15ml NW Monto,150.934444,-24.794167,860
1974-01-01T00:00:00Z,1974,Queensland,Ravenshoe,145.484444,-17.598333,861
1974-01-01T00:00:00Z,1974,Queensland,Biloela,150.517778,-24.398333,862
1974-01-01T00:00:00Z,1974,Queensland,"Oban, 20ml SE Bollon",147.717778,-28.248333,863
1974-01-01T00:00:00Z,1974,Queensland,Gundiah,152.551111,-25.831667,864
1974-01-01T00:00:00Z,1974,Queensland,Ormeau,153.267778,-27.781667,865
1974-01-01T00:00:00Z,1974,Queensland,"Kolan South, 15ml W Bundaberg",152.167778,-24.931667,866
1974-01-01T00:00:00Z,1974,Queensland,"Elgin Downs Stn, Clermont",146.917778,-21.998333,867
1974-01-01T00:00:00Z,1974,Queensland,"Kinleymore, 3ml SE Proston",151.651111,-26.181667,868
1974-01-01T00:00:00Z,1974,Queensland,Marina Plains nr Princess Charlotte Bay,143.876111,-14.548333,869
1974-01-01T00:00:00Z,1974,Queensland,"Beeron Rd, 16ml S Mundubbera",151.301111,-25.748333,870
1974-01-01T00:00:00Z,1974,Queensland,"Clissold Point, Injune",148.734444,-25.981667,871
1974-01-01T00:00:00Z,1974,Queensland,"Werona, 8ml N Kilcoy",152.584444,-26.865,872
1974-01-01T00:00:00Z,1974,Queensland,"Miriam Vale, 43 ml S Gladstone",151.567778,-24.331667,873
1974-01-01T00:00:00Z,1974,Queensland,"Yarrabah, E Cairns",145.867778,-16.915,874
1974-01-01T00:00:00Z,1974,Queensland,Eungella [Dam],148.401111,-21.165,875
1974-01-01T00:00:00Z,1974,Queensland,Christmas Ck. 35ml S Aurukun,141.734444,-13.848333,876
1974-01-01T00:00:00Z,1974,Queensland,Nambour,152.967778,-26.631667,877
1974-01-01T00:00:00Z,1974,Queensland,"Laroona, 60ml W Townsville",145.984444,-19.348333,878
1974-01-01T00:00:00Z,1974,Queensland,Lake Victoria,150.284444,-24.031667,879
1974-01-01T00:00:00Z,1974,Queensland,Highfields,151.951111,-27.465,880
1974-01-01T00:00:00Z,1974,Queensland,"Enryb Downs, 60ml NE Winton",143.551111,-21.948333,881
1974-01-01T00:00:00Z,1974,Queensland,"Mirtna, 100ml SW Charters Towers",146.217778,-21.281667,882
1974-01-01T00:00:00Z,1974,Queensland,Paluma,146.201111,-18.998333,883
1974-01-01T00:00:00Z,1974,Queensland,"Jimbour, 16ml N Dalby",151.217778,-26.965,884
1974-01-01T00:00:00Z,1974,Queensland,"Fairyland, 22ml NW Jandowae",150.934444,-26.515,885
1974-01-01T00:00:00Z,1974,Queensland,"Freshwater, Cairns",145.717778,-16.881667,886
1974-01-01T00:00:00Z,1974,Queensland,"Maxwelton, W Richmond",142.684444,-20.715,887
1974-01-01T00:00:00Z,1974,Queensland,"Mon Repos, Bundaberg",152.438611,-24.798333,888
1974-01-01T00:00:00Z,1974,Queensland,Rockhampton,150.534444,-23.365,889
1974-01-01T00:00:00Z,1974,Queensland,Brooweena,152.267778,-25.598333,890
1974-01-01T00:00:00Z,1974,Queensland,"Murraway, 32ml W Moura",149.684444,-24.515,891
1974-01-01T00:00:00Z,1974,Queensland,"Raby Ck, 30ml S Duaringa",149.384444,-23.965,892
1974-01-01T00:00:00Z,1974,Queensland,8ml N Kilcoy,152.584444,-26.856667,893
1974-01-01T00:00:00Z,1974,Queensland,Walloon,152.667778,-27.606667,894
1974-01-01T00:00:00Z,1974,Queensland,"Boogan, 7ml S Innisfail",146.017778,-17.606667,895
1974-01-01T00:00:00Z,1974,Queensland,"Bundi, 30ml W Wandoan",149.584444,-26.098333,896
1974-01-01T00:00:00Z,1974,Queensland,Babinda,145.934444,-17.348333,897
1974-01-01T00:00:00Z,1974,Queensland,"Culbara, 30ml WNW Moura",149.517778,-24.431667,898
1974-01-01T00:00:00Z,1974,Queensland,Sunnybank Hills,153.051111,-27.598333,899
1974-01-01T00:00:00Z,1974,Queensland,"Binjour, 14ml NW Gayndah",151.451111,-25.515,900
1974-01-01T00:00:00Z,1974,Queensland,"De Salis, 50ml W Bowen",147.467778,-20.165,901
1974-01-01T00:00:00Z,1974,Queensland,Cooloola wallum,153.042778,-26.056667,902
1974-01-01T00:00:00Z,1974,Queensland,Ayr,147.401111,-19.565,903
1974-01-01T00:00:00Z,1974,Queensland,"Braford Park, 60ml N Chinchilla",150.701111,-26.065,904
1974-01-01T00:00:00Z,1974,Queensland,Keysland,151.734444,-26.215,905
1974-01-01T00:00:00Z,1974,Queensland,"Euroka, 90ml N Dingo",148.934444,-22.665,906
1974-01-01T00:00:00Z,1974,Queensland,"Bluff, W Rockhampton",149.067778,-23.581667,907
1974-01-01T00:00:00Z,1974,Queensland,Walkamin,145.434444,-17.131667,908
1974-01-01T00:00:00Z,1974,Queensland,"New Country Ck, 3ml W Kilcoy",152.517778,-26.965,909
1974-01-01T00:00:00Z,1974,Queensland,"Logan Downs, 40ml E Clermont",147.934444,-22.381667,910
1974-01-01T00:00:00Z,1974,Queensland,Cooktown,145.251111,-15.465,911
1974-01-01T00:00:00Z,1974,Queensland,"Binna Burra, Lamington NP",153.184444,-28.215,912
1974-01-01T00:00:00Z,1974,Queensland,3ml W Monto,151.084444,-24.84,913
1974-01-01T00:00:00Z,1974,Queensland,"Churchill, 3ml S Ipswich",152.751111,-27.64,914
1974-01-01T00:00:00Z,1974,Queensland,Boonah,152.684444,-27.998333,915
1974-01-01T00:00:00Z,1974,Queensland,Lakefield,144.201111,-14.9275,916
1974-01-01T00:00:00Z,1974,Queensland,4ml N Yeppoon,150.734444,-23.081667,917
1974-01-01T00:00:00Z,1974,Queensland,Mt Nebo,152.784444,-27.398333,918
1974-01-01T00:00:00Z,1974,Queensland,"Black Mountain, NW Cairns",145.501111,-16.623333,919
1974-01-01T00:00:00Z,1974,Queensland,"Wynnum West, 10ml E of Brisbane",153.159444,-27.456667,920
1974-01-01T00:00:00Z,1974,Queensland,"Moorland, 15ml N Bundaberg",152.184444,-24.748333,921
1974-01-01T00:00:00Z,1974,Queensland,"Pimlico, Townsville",146.788611,-19.281667,922
1974-01-01T00:00:00Z,1974,Queensland,"Julatten, 16ml SW Mossman",145.334444,-16.615,923
1974-01-01T00:00:00Z,1974,Queensland,"Nagoorin, Boyne Valley",151.301111,-24.365,924
1974-01-01T00:00:00Z,1974,Queensland,"North Arm, 8ml N Nambour",152.951111,-26.523333,925
1974-01-01T00:00:00Z,1974,Queensland,"Yorkey's Knob, Cairns",145.717778,-16.815,926
1974-01-01T00:00:00Z,1974,Queensland,"Walker Bay (land), Cooktown",145.284444,-15.565,927
1974-01-01T00:00:00Z,1974,Queensland,Dayboro,152.817778,-27.198333,928
1974-01-01T00:00:00Z,1974,Queensland,"Palm Bay, Whitsunday Is",148.851111,-20.348333,929
1974-01-01T00:00:00Z,1974,Queensland,Boondooma,151.267778,-26.298333,930
1974-01-01T00:00:00Z,1974,Queensland,"Glenalpine, 30ml SW Bowen",147.801111,-20.281667,931
1974-01-01T00:00:00Z,1974,Queensland,Winyalea,152.534444,-26.865,932
1974-01-01T00:00:00Z,1974,Queensland,"Narpi, 24ml N Mackay",148.867778,-20.998333,933
1974-01-01T00:00:00Z,1974,Queensland,Bardon,152.980278,-27.460833,934
1974-01-01T00:00:00Z,1974,Queensland,East Innisfail,146.034444,-17.531667,935
1974-01-01T00:00:00Z,1974,Queensland,Stalworth,151.601111,-26.115,936
1974-01-01T00:00:00Z,1974,Queensland,"Woongoolba, 20ml S Brisbane",153.317778,-27.748333,937
1974-01-01T00:00:00Z,1974,Queensland,"Rollingstone, NW Townsville",146.401111,-19.048333,938
1974-01-01T00:00:00Z,1974,Queensland,Woodgate,152.567778,-25.115,939
1974-01-01T00:00:00Z,1974,Queensland,"Katherine Ck, 80km W Longreach",143.667778,-23.556667,940
1974-01-01T00:00:00Z,1974,Queensland,"Oakleigh Stn, 100ml N Rockhampton",149.784444,-22.665,941
1974-01-01T00:00:00Z,1974,Queensland,"Helen's Hill, 8ml S Ingham",146.151111,-18.773333,942
1974-01-01T00:00:00Z,1974,Queensland,Mudgeeraba,153.367778,-28.081667,943
1974-01-01T00:00:00Z,1974,Queensland,"Oakenden, 19ml SW Mackay",149.001111,-21.315,944
1974-01-01T00:00:00Z,1974,Queensland,"Andergrove, 3ml from Mackay",149.184444,-21.098333,945
1974-01-01T00:00:00Z,1974,Queensland,"Stanley Hills, 12ml NE Woodford",152.901111,-26.831667,946
1974-01-01T00:00:00Z,1974,Queensland,Malanda,145.601111,-17.348333,947
1974-01-01T00:00:00Z,1974,Queensland,"Holland Park, Brisbane",153.067778,-27.515,948
1974-01-01T00:00:00Z,1974,Queensland,1ml N of Bundaberg,152.334444,-24.848333,949
1974-01-01T00:00:00Z,1974,Queensland,Maryborough Forestry areas,152.534444,-25.448333,950
1974-01-01T00:00:00Z,1974,Queensland,Canungra to Beechmont,153.194167,-28.065,951
1974-01-01T00:00:00Z,1974,Queensland,Airlie Beach,148.717778,-20.269167,952
1974-01-01T00:00:00Z,1974,Queensland,Proston,151.601111,-26.165,953
1974-01-01T00:00:00Z,1974,Queensland,"East Palmerston, 17ml W Innisfail",145.842778,-17.606667,954
1974-01-01T00:00:00Z,1974,Queensland,Dulacca,149.767778,-26.648333,955
1974-01-01T00:00:00Z,1974,Queensland,14ml S Cardwell,146.117778,-18.398333,956
1974-01-01T00:00:00Z,1974,Queensland,Durong South,151.251111,-26.398333,957
1974-01-01T00:00:00Z,1974,Queensland,Norman Park,153.063611,-27.4775,958
1974-01-01T00:00:00Z,1974,Queensland,El Arish,146.001111,-17.815,959
1974-01-01T00:00:00Z,1974,Queensland,Hughenden,144.201111,-20.848333,960
1974-01-01T00:00:00Z,1974,Queensland,North Aramara,152.317778,-25.615,961
1974-01-01T00:00:00Z,1974,Queensland,Eidsvold,151.121944,-25.369167,962
1974-01-01T00:00:00Z,1974,Queensland,"Bloomsbury, 50ml N Mackay",148.601111,-20.698333,963
1974-01-01T00:00:00Z,1974,Queensland,Cardwell Range,145.634444,-17.798333,964
1974-01-01T00:00:00Z,1974,Queensland,"Byfield, 25ml N Yeppoon",150.634444,-22.848333,965
1974-01-01T00:00:00Z,1974,Queensland,Lily Ck via Cooktown,145.151111,-15.431667,966
1974-01-01T00:00:00Z,1974,Queensland,Near Samford,152.884444,-27.373333,967
1974-01-01T00:00:00Z,1974,Queensland,"Branxholme Stn, 8.5 ml N St Lawrence",149.517778,-22.315,968
1974-01-01T00:00:00Z,1974,Queensland,"Warrawee, 15ml W Gympie",152.501111,-26.281667,969
1974-01-01T00:00:00Z,1974,Queensland,Alpha,146.634444,-23.648333,970
1974-01-01T00:00:00Z,1974,Queensland,Biggenden,152.051111,-25.515,971
1974-01-01T00:00:00Z,1974,Queensland,"Glenore Stn, Bowen",147.884444,-20.048333,972
1974-01-01T00:00:00Z,1974,Queensland,Rainsby,145.217778,-21.881667,973
1974-01-01T00:00:00Z,1974,Queensland,"Homebush, 15ml SW Mackay",149.051111,-21.281667,974
1974-01-01T00:00:00Z,1974,Queensland,Cribb Island,153.126111,-27.356667,975
1974-01-01T00:00:00Z,1974,Queensland,"Corinda Stn, Aramac",145.334444,-22.048333,976
1974-01-01T00:00:00Z,1974,Queensland,Ebenezer,152.617778,-27.665,977
1974-01-01T00:00:00Z,1974,Queensland,Roma,148.784444,-26.581667,978
1974-01-01T00:00:00Z,1974,Queensland,"Alligator Ck, 17ml S Mackay",149.217778,-21.331667,979
1974-01-01T00:00:00Z,1974,Queensland,"Nerrigundah, 54ml SW Quilpie",143.851111,-26.965,980
1974-01-01T00:00:00Z,1974,Queensland,Mt Isa,139.484444,-20.731667,981
1974-01-01T00:00:00Z,1974,Queensland,"Sundown Stn, 30ml SW Mt Garnet",144.767778,-17.798333,982
1974-01-01T00:00:00Z,1974,Queensland,Woodford,152.784444,-26.948333,983
1974-01-01T00:00:00Z,1974,Queensland,"Hemmant East, Brisbane",153.126111,-27.448333,984
1974-01-01T00:00:00Z,1974,Queensland,"Stirling Stn, Smithburne Rd",141.717778,-17.181667,985
1974-01-01T00:00:00Z,1974,Queensland,"Heatley, Townsville",146.751111,-19.298333,986
1974-01-01T00:00:00Z,1974,Queensland,Mt Gravatt,153.067778,-27.54,987
1974-01-01T00:00:00Z,1974,Queensland,"Chevron Island, Surfers Paradise",153.417778,-27.998333,988
1974-01-01T00:00:00Z,1974,Queensland,Wondai,151.884444,-26.315,989
1974-01-01T00:00:00Z,1974,Queensland,"Marylands, 120ml SW Mackay",149.201111,-22.115,990
1974-01-01T00:00:00Z,1974,Queensland,Infracombe,144.501111,-23.498333,991
1974-01-01T00:00:00Z,1974,Queensland,Caloundra,153.134444,-26.798333,992
1974-01-01T00:00:00Z,1974,Queensland,"Glenwood, 22ml N Gympie",152.601111,-25.948333,993
1974-01-01T00:00:00Z,1974,Queensland,Dalrymple Heights,148.501111,-21.131667,994
1974-01-01T00:00:00Z,1974,Queensland,"Moray Downs, Clermont",146.634444,-21.948333,995
1974-01-01T00:00:00Z,1974,Queensland,"Ulcanbah Stn, Aramac",145.984444,-22.031667,996
1974-01-01T00:00:00Z,1974,Queensland,"Charnwood, 25ml S Miriam Vale",151.634444,-24.648333,997
1974-01-01T00:00:00Z,1974,Queensland,West side Buderim Mountain,153.034444,-26.69,998
1974-01-01T00:00:00Z,1974,Queensland,15ml S Roma,148.717778,-26.748333,999
1974-01-01T00:00:00Z,1974,Queensland,Slack's Creek,153.134444,-27.64,1000
1974-01-01T00:00:00Z,1974,Queensland,Maxwelton Stn,142.717778,-20.781667,1001
1974-01-01T00:00:00Z,1974,Queensland,"Doongmabulla Stn, Clermont",146.251111,-22.065,1002
1974-01-01T00:00:00Z,1974,Queensland,"Nukem, 70ml NW Winton",142.367778,-21.831667,1003
1974-01-01T00:00:00Z,1974,Queensland,"Glenaubyn, 24km N Drillham",149.951111,-26.498333,1004
1974-01-01T00:00:00Z,1974,Queensland,Wavell Heights,153.051111,-27.39,1005
1974-01-01T00:00:00Z,1974,Queensland,"Weir, 7ml S Townsville",146.742778,-19.315,1006
1974-01-01T00:00:00Z,1974,Queensland,Edward River,141.617778,-14.898333,1007
1974-01-01T00:00:00Z,1974,Queensland,"Iron Range, NE Coen",143.317778,-12.781667,1008
1974-01-01T00:00:00Z,1974,Queensland,"Ropewalk, 7ml W Forsayth",143.551111,-18.623333,1009
1974-01-01T00:00:00Z,1974,Queensland,"Magowra, SW Normanton",140.884444,-17.781667,1010
1974-01-01T00:00:00Z,1974,Queensland,Oakey,151.717778,-27.431667,1011
1974-01-01T00:00:00Z,1974,Queensland,Mt Mee,152.767778,-27.081667,1012
1974-01-01T00:00:00Z,1974,Queensland,"Belmore, 10ml S Collinsville",147.884444,-20.648333,1013
1974-01-01T00:00:00Z,1974,Queensland,"Lower Tully, 8ml E Tully",146.001111,-17.998333,1014
1974-01-01T00:00:00Z,1974,Queensland,3ml E Ingham,146.201111,-18.648333,1015
1974-01-01T00:00:00Z,1974,Queensland,"Miranda Downs, Gilbert River",141.884444,-17.331667,1016
1974-01-01T00:00:00Z,1974,Queensland,"Carrinyah, 20ml NW Nebo",148.534444,-21.481667,1017
1974-01-01T00:00:00Z,1974,Queensland,Rolleston,148.617778,-24.465,1018
1974-01-01T00:00:00Z,1974,Queensland,Duaringa nr Taroom,149.667778,-23.715,1019
1974-01-01T00:00:00Z,1974,Queensland,Glasshouse Mountains,152.951111,-26.898333,1020
1974-01-01T00:00:00Z,1974,Queensland,"Moresby, 8ml S Innisfail",146.034444,-17.631667,1021
1974-01-01T00:00:00Z,1974,Queensland,Prairie,144.601111,-20.865,1022
1974-01-01T00:00:00Z,1974,Queensland,"Abingdon Downs, 70ml N Georgetown",143.184444,-17.598333,1023
1974-01-01T00:00:00Z,1974,Queensland,Yandina,152.951111,-26.565,1024
1974-01-01T00:00:00Z,1974,Queensland,"Terraldon, 87ml SW Cunnamulla",145.251111,-28.898333,1025
1974-01-01T00:00:00Z,1974,Queensland,Jacob's Well,153.334444,-27.781667,1026
1974-01-01T00:00:00Z,1974,Queensland,"Carole Park, Wacol",152.934444,-27.615,1027
1974-01-01T00:00:00Z,1974,Queensland,"Rosedale, 40ml NW Bundaberg",151.917778,-24.631667,1028
1974-01-01T00:00:00Z,1974,Queensland,"Blenheim, W Brisbane",152.334444,-27.648333,1029
1974-01-01T00:00:00Z,1974,Queensland,"Kelvin Grove, Brisbane",153.009444,-27.4525,1030
1974-01-01T00:00:00Z,1974,Queensland,1.5ml W Nambour,152.934444,-26.623333,1031
1974-01-01T00:00:00Z,1974,Queensland,Gympie,152.667778,-26.181667,1032
1974-01-01T00:00:00Z,1974,Queensland,"Monavale, Hughenden",144.384444,-20.881667,1033
1974-01-01T00:00:00Z,1974,Queensland,Acacia Ridge,153.017778,-27.581667,1034
1974-01-01T00:00:00Z,1974,Queensland,2ml NW of Dayboro,152.801111,-27.181667,1035
1974-01-01T00:00:00Z,1974,Queensland,Reno via Gogango,150.051111,-23.698333,1036
1974-01-01T00:00:00Z,1974,Queensland,20ml SE Gordonvale,145.926111,-17.298333,1037
1974-01-01T00:00:00Z,1974,Queensland,"Merrimac, 14ml W Mermaid Beach",153.371944,-28.048333,1038
1974-01-01T00:00:00Z,1974,Queensland,"Goondi, 2ml NW Innisfail-Goondi Mill",146.017778,-17.498333,1039
1974-01-01T00:00:00Z,1974,Queensland,"Greenvale, 80ml N Charters Towers",145.117778,-18.981667,1040
1974-01-01T00:00:00Z,1974,Queensland,Woodridge,153.109444,-27.631667,1041
1974-01-01T00:00:00Z,1974,Queensland,Kingaroy,151.834444,-26.54,1042
1974-01-01T00:00:00Z,1974,Queensland,Tinaroo Dam,145.551111,-17.165,1043
1974-01-01T00:00:00Z,1974,Queensland,Chermside,153.021944,-27.381667,1044
1974-01-01T00:00:00Z,1974,Queensland,Monogorilby SF,151.017778,-26.048333,1045
1974-01-01T00:00:00Z,1974,Queensland,Cooktown,145.251111,-15.465,1046
1974-01-01T00:00:00Z,1974,Queensland,Bauple SF,152.667778,-25.881667,1047
1974-01-01T00:00:00Z,1974,Queensland,"Hampden, 20ml N Mackay",148.934444,-21.065,1048
1974-01-01T00:00:00Z,1974,Queensland,"Lake Julius, 40ml NE Mt Isa",139.717778,-20.181667,1049
1974-01-01T00:00:00Z,1974,Queensland,"Cardstone, 30ml W Tully",145.584444,-17.765,1050
1974-01-01T00:00:00Z,1974,Queensland,"North St, Gatton",152.271944,-27.556667,1051
1974-01-01T00:00:00Z,1974,Queensland,"Quail Island, 120ml NE Rockhampton",149.984444,-22.131667,1052
1974-01-01T00:00:00Z,1974,Queensland,Esk,152.417778,-27.231667,1053
1974-01-01T00:00:00Z,1974,Queensland,"McIlwraith, 3ml SE Gin Gin",152.017778,-24.998333,1054
1974-01-01T00:00:00Z,1974,Queensland,"Araluen, 50ml N Chinchilla",150.734444,-26.115,1055
1974-01-01T00:00:00Z,1974,Queensland,Palmwoods,152.967778,-26.681667,1056
1974-01-01T00:00:00Z,1974,Queensland,"Cowan Downs Stn, 40km N Burke & Wills Roadhouse",140.534444,-18.965,1057
1974-01-01T00:00:00Z,1974,Queensland,Beerwah Forest Stn,152.967778,-26.865,1058
1974-01-01T00:00:00Z,1974,Queensland,Deearne,150.417778,-25.565,1059
1974-01-01T00:00:00Z,1974,Queensland,"Jamboree Heights, Brisbane",152.934444,-27.556667,1060
1974-01-01T00:00:00Z,1974,Queensland,"Sheep Stn Ck, N Kilcoy",152.534444,-26.873333,1061
1974-01-01T00:00:00Z,1974,Queensland,"Avondale, 20ml N Bundaberg",152.151111,-24.731667,1062
1974-01-01T00:00:00Z,1974,Queensland,"Gum Ck, 50ml W Croydon",141.634444,-18.015,1063
1974-01-01T00:00:00Z,1974,Queensland,Taroom,149.801111,-25.648333,1064
1974-01-01T00:00:00Z,1974,Queensland,Amos Bay (land),145.334444,-15.681667,1065
1974-01-01T00:00:00Z,1974,Queensland,"Dandenong Park, 100ml SE Charters Towers",146.767778,-20.931667,1066
1974-01-01T00:00:00Z,1974,Queensland,Mareeba,145.434444,-16.998333,1067
1974-01-01T00:00:00Z,1974,Queensland,Innisfail,146.017778,-17.531667,1068
1974-01-01T00:00:00Z,1974,Queensland,Bundaberg,152.351111,-24.848333,1069
1974-01-01T00:00:00Z,1974,Queensland,Roadvale,152.684444,-27.915,1070
1974-01-01T00:00:00Z,1974,Queensland,"Yalboroo, N Mackay",148.651111,-20.831667,1071
1974-01-01T00:00:00Z,1974,Queensland,"Bengalla, 47ml NE Wandoan",150.191389,-25.748333,1072
1974-01-01T00:00:00Z,1974,Queensland,50ml N Mackay,148.609444,-20.723333,1073
1974-01-01T00:00:00Z,1974,Queensland,Cannonvale,148.692778,-20.281667,1074
1974-01-01T00:00:00Z,1974,Queensland,"Gracemere, SW Rockhampton",150.451111,-23.431667,1075
1974-01-01T00:00:00Z,1974,Queensland,Condamine,150.134444,-26.931667,1076
1974-01-01T00:00:00Z,1974,Queensland,"Lancewood, 60ml NW Nebo",147.934444,-21.448333,1077
1974-01-01T00:00:00Z,1974,Queensland,"Irvinebank, W Herberton",145.201111,-17.431667,1078
1974-01-01T00:00:00Z,1974,Queensland,Gladstone,151.267778,-23.848333,1079
1974-01-01T00:00:00Z,1974,Queensland,"Currajong, Townsville",146.776111,-19.269167,1080
1974-01-01T00:00:00Z,1974,Queensland,Capella,148.017778,-23.081667,1081
1974-01-01T00:00:00Z,1974,Queensland,Near Cairns,145.751111,-16.931667,1082
1974-01-01T00:00:00Z,1974,Queensland,Jandowae,151.117778,-26.781667,1083
1974-01-01T00:00:00Z,1974,Queensland,Bundaberg,152.351111,-24.848333,1084
1974-01-01T00:00:00Z,1974,Queensland,"Windera, 10ml NW Goomeri",151.834444,-26.065,1085
1974-01-01T00:00:00Z,1974,Queensland,3ml S Peak Crossing,152.742778,-27.823333,1086
1974-01-01T00:00:00Z,1974,Queensland,"Yerra, 10ml SW Maryborough",152.534444,-25.615,1087
1974-01-01T00:00:00Z,1974,Queensland,22ml NE Jandowae,151.367778,-26.648333,1088
1974-01-01T00:00:00Z,1974,Queensland,Macgregor,153.076111,-27.565,1089
1974-01-01T00:00:00Z,1974,Queensland,22ml S Bundaberg,152.367778,-25.115,1090
1974-01-01T00:00:00Z,1974,Queensland,"Sapphire, 30ml W Emerald",147.717778,-23.465,1091
1974-01-01T00:00:00Z,1974,Queensland,"Airville, 7ml from Ayr",147.334444,-19.648333,1092
1974-01-01T00:00:00Z,1974,Queensland,"Mt Molloy, N Mareeba",145.334444,-16.681667,1093
1974-01-01T00:00:00Z,1974,Queensland,"Boyne Island, 16ml S Gladstone",151.351111,-23.931667,1094
1974-01-01T00:00:00Z,1974,Queensland,McIvor River,145.101111,-15.165,1095
1974-01-01T00:00:00Z,1974,Queensland,Cordalba,152.217778,-25.165,1096
1974-01-01T00:00:00Z,1974,Queensland,"Bellthorpe West, 15.5ml NE Woodford",152.717778,-26.848333,1097
1974-01-01T00:00:00Z,1974,Queensland,"Inala, Brisbane",152.967778,-27.59,1098
1974-01-01T00:00:00Z,1974,Queensland,Eight Mile Plains,153.092778,-27.585833,1099
1974-01-01T00:00:00Z,1974,Queensland,"Iredale, 3ml SW Helidon",152.076111,-27.581667,1100
1974-01-01T00:00:00Z,1974,Queensland,Richmond,143.134444,-20.731667,1101
1974-01-01T00:00:00Z,1974,Queensland,"Coorumba, 10ml W Innisfail",145.917778,-17.565,1102
1974-01-01T00:00:00Z,1974,Queensland,"Square Post, 48ml SW Townsville",146.684444,-19.831667,1103
1974-01-01T00:00:00Z,1974,Queensland,Kennedy,145.951111,-18.198333,1104
1974-01-01T00:00:00Z,1974,Queensland,Wowan,150.201111,-23.915,1105
1974-01-01T00:00:00Z,1974,Queensland,Childers,152.284444,-25.231667,1106
1974-01-01T00:00:00Z,1974,Queensland,10km E of Pinnacle,148.801111,-21.173333,1107
1974-01-01T00:00:00Z,1974,Queensland,"Gargett, W Mackay",148.751111,-21.165,1108
1974-01-01T00:00:00Z,1974,Queensland,8ml W Proserpine,148.476111,-20.423333,1109
1974-01-01T00:00:00Z,1974,Queensland,"Kinka Beach, 8ml S Yeppoon",150.784444,-23.215,1110
1974-01-01T00:00:00Z,1974,Queensland,"Dalbeg, 60ml S Ayr",147.301111,-20.265,1111
1974-01-01T00:00:00Z,1974,Queensland,"Mt Marrow, W Ipswich",152.617778,-27.598333,1112
1974-01-01T00:00:00Z,1974,Queensland,"Mt Elliot, 50ml SE Townsville",146.967778,-19.448333,1113
1974-01-01T00:00:00Z,1974,Queensland,"Greenvale, Townsville",144.813611,-19.0025,1114
1974-01-01T00:00:00Z,1974,Queensland,"Hidden Valley, 60ml NW Townsville",146.017778,-18.981667,1115
1974-01-01T00:00:00Z,1974,Queensland,"Burdekin Downs, 14ml NE Charters Towers",146.234444,-19.881667,1116
1974-01-01T00:00:00Z,1974,Queensland,"Glentor Downs, 28ml SW Hughenden",144.467778,-20.748333,1117
1974-01-01T00:00:00Z,1974,Queensland,"Yabulu, NW Townsville",146.601111,-19.215,1118
1974-01-01T00:00:00Z,1974,Queensland,Gayndah,151.617778,-25.615,1119
1974-01-01T00:00:00Z,1974,Queensland,"Hermit Park, Townsville",146.801111,-19.29,1120
1974-01-01T00:00:00Z,1974,Queensland,Mt Morgan,150.384444,-23.648333,1121
1974-01-01T00:00:00Z,1974,Queensland,"Deighton River, NQ",144.517778,-15.465,1122
1974-01-01T00:00:00Z,1974,Queensland,"Carmila, S Sarina",149.417778,-21.915,1123
1974-01-01T00:00:00Z,1974,Queensland,"Kimbala, 100ml NNW Brisbane",152.367778,-26.665,1124
1974-01-01T00:00:00Z,1974,Queensland,"Logan Reserve, 6.5ml from Woodridge",153.117778,-27.715,1125
1974-01-01T00:00:00Z,1974,Queensland,45km E Moura,150.317778,-24.398333,1126
1974-01-01T00:00:00Z,1974,Queensland,Croydon,142.251111,-18.198333,1127
1974-01-01T00:00:00Z,1974,Queensland,"Coreen Stn, 100ml NW Rockhampton",149.367778,-22.965,1128
1974-01-01T00:00:00Z,1974,Queensland,"Dallarnil, 9ml N Biggenden",152.042778,-25.39,1129
1974-01-01T00:00:00Z,1974,Queensland,"Beltana Stn, 40ml SE St George",149.101111,-28.115,1130
1974-01-01T00:00:00Z,1974,Queensland,"Dagun, 10ml from Gympie",152.684444,-26.315,1131
1974-01-01T00:00:00Z,1974,Queensland,"Wolvi, NE Gympie",152.834444,-26.165,1132
1974-01-01T00:00:00Z,1974,Queensland,"Natal Downs, 90ml SW Charters Towers",146.151111,-21.081667,1133
1974-01-01T00:00:00Z,1974,Queensland,"Redbank, Ipswich",152.871944,-27.6025,1134
1974-01-01T00:00:00Z,1974,Queensland,Gordonvale,145.784444,-17.098333,1135
1974-01-01T00:00:00Z,1974,Queensland,Kilcoy,152.567778,-26.948333,1136
1974-01-01T00:00:00Z,1974,Queensland,"Moffatdale, 8ml from Murgon",152.017778,-26.315,1137
1974-01-01T00:00:00Z,1974,Queensland,"Gooburrum, 8km NW Bundaberg",152.317778,-24.848333,1138
1974-01-01T00:00:00Z,1974,Queensland,"Eel Ck, 13ml SW Gympie",152.567778,-26.298333,1139
1974-01-01T00:00:00Z,1974,Queensland,Taroom,145.801111,-25.64,1140
1974-01-01T00:00:00Z,1974,Queensland,St Lawrence,149.534444,-22.348333,1141
1974-01-01T00:00:00Z,1974,Queensland,"Long Pocket, 12ml NW Ingham",146.017778,-18.531667,1142
1974-01-01T00:00:00Z,1974,Queensland,Coen,143.201111,-13.948333,1143
1974-01-01T00:00:00Z,1974,Queensland,Urooroora,145.434444,-17.731667,1144
1974-01-01T00:00:00Z,1974,Queensland,Ravenswood,146.884444,-20.098333,1145
1974-01-01T00:00:00Z,1974,Queensland,25ml NW Cairns,145.584444,-16.69,1146
1974-01-01T00:00:00Z,1974,Queensland,Woodgate SF,152.617778,-25.156667,1147
1974-01-01T00:00:00Z,1974,Queensland,"Nebo, 60ml SW Mackay",148.701111,-21.698333,1148
1974-01-01T00:00:00Z,1974,Queensland,"Bungunya, Goondiwindi",149.651111,-28.431667,1149
1974-01-01T00:00:00Z,1974,Queensland,Samford,152.884444,-27.365,1150
1974-01-01T00:00:00Z,1974,Queensland,Emu Park,150.826111,-23.265,1151
1974-01-01T00:00:00Z,1974,Queensland,"Boondall, Brisbane",153.059444,-27.348333,1152
1974-01-01T00:00:00Z,1974,Queensland,Chillagoe,144.517778,-17.148333,1153
1974-01-01T00:00:00Z,1974,Queensland,Morambah Stn,148.101111,-22.015,1154
1974-01-01T00:00:00Z,1974,Queensland,"Oakwood, 5ml W Bundaberg",152.301111,-24.865,1155
1974-01-01T00:00:00Z,1974,Queensland,"Gumdale, Brisbane",153.159444,-27.49,1156
1974-01-01T00:00:00Z,1974,Queensland,"Ripple Ck, 5ml N Ingham",146.201111,-18.581667,1157
1974-01-01T00:00:00Z,1974,Queensland,Thornlands,153.259444,-27.556667,1158
1974-01-01T00:00:00Z,1974,Queensland,Burnett Heads,152.417778,-24.765,1159
1974-01-01T00:00:00Z,1974,Queensland,Nonda,142.484444,-20.681667,1160
1974-01-01T00:00:00Z,1974,Queensland,"Home Hill, 7ml from Ayr",147.417778,-19.665,1161
1974-01-01T00:00:00Z,1974,Queensland,Mt Molloy,145.330278,-16.673333,1162
1974-01-01T00:00:00Z,1974,Queensland,Ingham,146.167778,-18.648333,1163
1974-01-01T00:00:00Z,1974,Queensland,14ml NNW Biloela,150.401111,-24.248333,1164
1974-01-01T00:00:00Z,1974,Queensland,Somerset Dam,152.551111,-27.115,1165
1974-01-01T00:00:00Z,1974,Queensland,"Birkdale, Brisbane",153.209444,-27.485833,1166
1974-01-01T00:00:00Z,1974,Queensland,North Mackay,149.201111,-21.123333,1167
1974-01-01T00:00:00Z,1974,Queensland,Booubyjan,151.967778,-25.948333,1168
1974-01-01T00:00:00Z,1974,Queensland,Keppel Sands,150.792778,-23.331667,1169
1974-01-01T00:00:00Z,1974,Queensland,Maryborough,152.701111,-25.531667,1170
1974-01-01T00:00:00Z,1974,Queensland,Kingaroy,151.834444,-26.531667,1171
1974-01-01T00:00:00Z,1974,Queensland,Kin Kin,152.884444,-26.265,1172
1974-01-01T00:00:00Z,1974,Queensland,"Depothill, Rockhampton",150.521944,-23.39,1173
1974-01-01T00:00:00Z,1974,Queensland,"Hillview (Hillcrest), 20ml S Brisbane",153.026111,-27.673333,1174
1974-01-01T00:00:00Z,1974,Queensland,Duaringa,149.667778,-23.715,1175
1974-01-01T00:00:00Z,1974,Queensland,"Couti Uti, N Rockhampton",150.117778,-22.365,1176
1974-01-01T00:00:00Z,1974,Queensland,"Kenmore, 8ml W Brisbane",152.851111,-27.531667,1177
1974-01-01T00:00:00Z,1974,Queensland,10ml W Duaringa,149.551111,-23.698333,1178
1974-01-01T00:00:00Z,1974,Queensland,"Riverleigh, 6.7ml from Mundubbera",151.201111,-25.581667,1179
1974-01-01T00:00:00Z,1974,Queensland,10ml E Gordonvale,145.876111,-17.165,1180
1974-01-01T00:00:00Z,1974,Queensland,"Moylan, 50ml SW Cunnamulla",145.334444,-28.565,1181
1974-01-01T00:00:00Z,1974,Queensland,Mt Surprise,144.317778,-18.148333,1182
1974-01-01T00:00:00Z,1974,Queensland,Shiptons Flat,145.234444,-15.79,1183
1974-01-01T00:00:00Z,1974,Queensland,Rochedale,153.126111,-27.569167,1184
1974-01-01T00:00:00Z,1974,Queensland,Atherton,145.484444,-17.265,1185
1974-01-01T00:00:00Z,1974,Queensland,Rainbow Beach (beach),153.092778,-25.906667,1186
1974-01-01T00:00:00Z,1974,Queensland,90ml SW Mt Garnet,144.617778,-18.748333,1187
1974-01-01T00:00:00Z,1974,Queensland,"Palm Beach, Gold Coast",153.467778,-28.115,1188
1974-01-01T00:00:00Z,1974,Queensland,"Mourilyan, 3ml E Innisfail",146.042778,-17.581667,1189
1974-01-01T00:00:00Z,1974,Queensland,"Mirani, W Mackay",148.867778,-21.165,1190
1974-01-01T00:00:00Z,1974,Queensland,"Manly West, Brisbane",153.176111,-27.473333,1191
1974-01-01T00:00:00Z,1974,Queensland,Deception Bay,153.030278,-27.185833,1192
1974-01-01T00:00:00Z,1974,Queensland,South Townsville,146.830278,-19.265,1193
1974-01-01T00:00:00Z,1974,Queensland,"Vincent, Townsville",146.767778,-19.281667,1194
1974-01-01T00:00:00Z,1974,Queensland,"Strathbogie Stn, 40ml W Bowen",147.551111,-20.148333,1195
1974-01-01T00:00:00Z,1974,Queensland,"Lincoln Springs, 75ml W Ingham",145.534444,-18.748333,1196
1974-01-01T00:00:00Z,1974,Queensland,"O'Reillys, 75ml SW Brisbane",153.134444,-28.231667,1197
1974-01-01T00:00:00Z,1974,Queensland,"Ungowa, Fraser Island",152.992778,-25.498333,1198
1974-01-01T00:00:00Z,1974,Queensland,Dawes Range,151.484444,-24.531667,1199
1974-01-01T00:00:00Z,1974,Queensland,1ml W of Kingaroy,151.817778,-26.548333,1200
1974-01-01T00:00:00Z,1974,Queensland,4ml N Kilkivan,152.234444,-26.031667,1201
1974-01-01T00:00:00Z,1974,Queensland,"Euramo PO, 9ml SE Tully",145.934444,-17.998333,1202
1974-01-01T00:00:00Z,1974,Queensland,"Foresthome, 4ml N Ingham",146.201111,-18.598333,1203
1974-01-01T00:00:00Z,1974,Queensland,Cathu SF,148.551111,-20.798333,1204
1974-02-01T00:00:00Z,1974,Queensland,Noosa NP,153.105222,-26.390072,1205
1974-04-01T00:00:00Z,1974,Queensland,Charters Towers,146.266667,-20.083333,1206
1974-04-01T00:00:00Z,1974,Queensland,Charters Towers,146.266667,-20.083333,1207
1974-04-01T00:00:00Z,1974,Queensland,Charters Towers,146.266667,-20.083333,1208
1974-04-05T00:00:00Z,1974,Queensland,"Pumping Stn, nr Dunwich, N Stradbroke Is",153.4,-27.5,1209
1974-05-01T00:00:00Z,1974,Queensland,Disused railway siding betw Proserpine & Bowen,148.392753,-20.223442,1210
1974-05-29T00:00:00Z,1974,Queensland,Tully Valley,145.633333,-17.75,1211
1974-05-29T00:00:00Z,1974,Queensland,Tully Valley,145.633333,-17.75,1212
1974-05-31T00:00:00Z,1974,Queensland,"Gordon Ck, McLeod R",145.083333,-16.333333,1213
1974-06-15T00:00:00Z,1974,Northern Territory,Darwin,130.833,-12.45,1214
1974-07-05T00:00:00Z,1974,Queensland,"Corio Bay area, around Fishing Ck (land)",150.756667,-22.976111,1215
1974-08-26T00:00:00Z,1974,Queensland,Kondalilla NP,152.867729,-26.68174,1216
1974-09-27T00:00:00Z,1974,Queensland,Millstream NP,145.4575,-17.641111,1217
1975-01-01T00:00:00Z,1975,Queensland,"Vanilla, Linville",152.267778,-26.848333,1218
1975-01-01T00:00:00Z,1975,Queensland,"Boat Creek, Curtis Island",151.15218,-23.615088,1219
1975-01-01T00:00:00Z,1975,Queensland,"Oombabeer Stn, Moura",149.551111,-24.531667,1220
1975-01-01T00:00:00Z,1975,Queensland,"Marine Plains, Curtis Island",151.155236,-23.556755,1221
1975-01-01T00:00:00Z,1975,Queensland,"Laurel Hills, 90km WNW Moura",149.401111,-24.565,1222
1975-01-01T00:00:00Z,1975,Queensland,Hughenden,144.201111,-20.848333,1223
1975-01-01T00:00:00Z,1975,Queensland,"Mcallister, Normanton",140.534444,-18.248333,1224
1975-01-01T00:00:00Z,1975,Queensland,"Khartoum, 152km NNW Clermont",146.901111,-22.215,1225
1975-01-01T00:00:00Z,1975,Queensland,Mt Isa,139.484444,-20.731667,1226
1975-01-01T00:00:00Z,1975,Queensland,Mt Tamborine area,153.184401,-27.940068,1227
1975-01-01T00:00:00Z,1975,Queensland,"Pendower, Springbrook",153.263569,-28.227567,1228
1975-01-01T00:00:00Z,1975,Queensland,Laura,144.451111,-15.348333,1229
1975-01-01T00:00:00Z,1975,Queensland,"Australian Inland Hostel, Coen",143.201111,-13.948333,1230
1975-01-01T00:00:00Z,1975,Queensland,Bulburin SF,151.542778,-24.581667,1231
1975-01-01T00:00:00Z,1975,Queensland,"Underwood, 50km W Moura",149.567778,-24.648333,1232
1975-03-01T00:00:00Z,1975,Queensland,Eurimbula,151.834391,-24.181752,1233
1975-03-01T00:00:00Z,1975,Queensland,Rundle Range,150.984405,-23.631755,1234
1975-03-17T00:00:00Z,1975,Queensland,Bulburin SF (452947),151.471899,-24.531753,1235
1975-03-19T00:00:00Z,1975,Queensland,NA,151.483,-24.516,1236
1975-03-19T00:00:00Z,1975,Queensland,NA,151.483,-24.516,1237
1975-03-20T00:00:00Z,1975,Queensland,Bulburin SF (site 1),151.496899,-24.52342,1238
1975-03-20T00:00:00Z,1975,Queensland,Bulburin SF (site 3),151.488566,-24.552587,1239
1975-03-21T00:00:00Z,1975,Queensland,NA,151.483,-24.516,1240
1975-04-01T00:00:00Z,1975,Queensland,Homevale,148.559424,-21.390105,1241
1975-04-01T00:00:00Z,1975,Queensland,Finch Hatton,148.638589,-21.069272,1242
1975-04-01T00:00:00Z,1975,Queensland,Mt Dryander,148.534418,-20.240108,1243
1975-04-01T00:00:00Z,1975,Queensland,Deepwater NP,151.942724,-24.315085,1244
1975-04-01T00:00:00Z,1975,Queensland,Dalrymple Heights,148.584423,-21.065105,1245
1975-04-01T00:00:00Z,1975,Queensland,Brandy Creek,148.726083,-20.34844,1246
1975-05-01T00:00:00Z,1975,Queensland,Laura,144.45,-15.566667,1247
1975-06-11T00:00:00Z,1975,Queensland,"Eight Mile Plains, Brisbane",153.1,-27.583333,1248
1975-06-11T00:00:00Z,1975,Queensland,"Eight Mile Plains, Brisbane",153.1,-27.583333,1249
1975-07-01T00:00:00Z,1975,Queensland,"Coen, Australian Inland Mission Hostel",143.2,-13.95,1250
